2023-03-26 23:43:46,327 -[mav_srv] - INFO - {'time': 797636837, 'lat': 0.0, 'lon': 0.0, 'alt': 0.0, 'yaw': 161.45384216308594, 'pitch': -1.4036638736724854, 'roll': 0.7868989109992981, 'speed': 0.0}
2023-03-26 23:43:47,332 -[mav_srv] - INFO - -------GeoTag------------
2023-03-26 23:43:47,333 -[mav_srv] - INFO - {'time': 798636608, 'lat': 0.0, 'lon': 0.0, 'alt': 0.0, 'yaw': 161.42987060546875, 'pitch': -1.4051299095153809, 'roll': 0.7883241772651672, 'speed': 0.0}
2023-03-26 23:43:48,335 -[mav_srv] - INFO - -------GeoTag------------
2023-03-26 23:43:48,336 -[mav_srv] - INFO - {'time': 799635582, 'lat': 0.0, 'lon': 0.0, 'alt': 0.0, 'yaw': 161.42486572265625, 'pitch': -1.404171347618103, 'roll': 0.7890709638595581, 'speed': 0.0}
2023-03-26 23:43:49,337 -[mav_srv] - INFO - -------GeoTag------------
2023-03-26 23:43:49,338 -[mav_srv] - INFO - {'time': 800636616, 'lat': 0.0, 'lon': 0.0, 'alt': 0.0, 'yaw': 161.41587829589844, 'pitch': -1.4028904438018799, 'roll': 0.7836853265762329, 'speed': 0.0}
2023-03-26 23:43:50,346 -[mav_srv] - INFO - -------GeoTag------------
2023-03-26 23:43:50,347 -[mav_srv] - INFO - {'time': 801635577, 'lat': 0.0, 'lon': 0.0, 'alt': 0.0, 'yaw': 161.41065979003906, 'pitch': -1.4112495183944702, 'roll': 0.7747294306755066, 'speed': 0.0}
2023-03-26 23:43:51,348 -[mav_srv] - INFO - -------GeoTag------------
2023-03-26 23:43:51,349 -[mav_srv] - INFO - {'time': 802637105, 'lat': 0.0, 'lon': 0.0, 'alt': 0.0, 'yaw': 161.40719604492188, 'pitch': -1.4096275568008423, 'roll': 0.7771492600440979, 'speed': 0.0}
2023-03-26 23:43:52,353 -[mav_srv] - INFO - -------GeoTag------------
2023-03-26 23:43:52,353 -[mav_srv] - INFO - {'time': 803636607, 'lat': 0.0, 'lon': 0.0, 'alt': 0.0, 'yaw': 161.38282775878906, 'pitch': -1.408233880996704, 'roll': 0.7793773412704468, 'speed': 0.0}
2023-03-26 23:43:53,355 -[mav_srv] - INFO - -------GeoTag------------
2023-03-26 23:43:53,355 -[mav_srv] - INFO - {'time': 804635577, 'lat': 0.0, 'lon': 0.0, 'alt': 0.0, 'yaw': 161.3819580078125, 'pitch': -1.3996930122375488, 'roll': 0.7864300012588501, 'speed': 0.0}
2023-03-26 23:43:54,357 -[mav_srv] - INFO - -------GeoTag------------
2023-03-26 23:43:54,363 -[mav_srv] - INFO - {'time': 805635594, 'lat': 0.0, 'lon': 0.0, 'alt': 0.0, 'yaw': 161.38941955566406, 'pitch': -1.4053473472595215, 'roll': 0.8079089522361755, 'speed': 0.0}
2023-03-26 23:43:55,365 -[mav_srv] - INFO - -------GeoTag------------
2023-03-26 23:43:55,365 -[mav_srv] - INFO - {'time': 806637576, 'lat': 0.0, 'lon': 0.0, 'alt': 0.0, 'yaw': 161.3865509033203, 'pitch': -1.4087532758712769, 'roll': 0.807559609413147, 'speed': 0.0}
2023-03-26 23:43:56,374 -[mav_srv] - INFO - -------GeoTag------------
2023-03-26 23:43:56,375 -[mav_srv] - INFO - {'time': 807635575, 'lat': 0.0, 'lon': 0.0, 'alt': 0.0, 'yaw': 161.37982177734375, 'pitch': -1.4043422937393188, 'roll': 0.8212827444076538, 'speed': 0.0}
2023-03-26 23:43:57,376 -[mav_srv] - INFO - -------GeoTag------------
2023-03-26 23:43:57,377 -[mav_srv] - INFO - {'time': 808635583, 'lat': 0.0, 'lon': 0.0, 'alt': 0.0, 'yaw': 161.39181518554688, 'pitch': -1.405692458152771, 'roll': 0.8234610557556152, 'speed': 0.0}
2023-03-26 23:43:58,380 -[mav_srv] - INFO - -------GeoTag------------
2023-03-26 23:43:58,380 -[mav_srv] - INFO - {'time': 809637575, 'lat': 0.0, 'lon': 0.0, 'alt': 0.0, 'yaw': 161.37940979003906, 'pitch': -1.4052629470825195, 'roll': 0.8231350183486938, 'speed': 0.0}
2023-03-26 23:43:59,381 -[mav_srv] - INFO - -------GeoTag------------
2023-03-26 23:43:59,387 -[mav_srv] - INFO - {'time': 810635577, 'lat': 0.0, 'lon': 0.0, 'alt': 0.0, 'yaw': 161.3789520263672, 'pitch': -1.404300570487976, 'roll': 0.8231299519538879, 'speed': 0.0}
2023-03-26 23:44:00,395 -[mav_srv] - INFO - -------GeoTag------------
2023-03-26 23:44:00,396 -[mav_srv] - INFO - {'time': 811635576, 'lat': 0.0, 'lon': 0.0, 'alt': 0.0, 'yaw': 161.34933471679688, 'pitch': -1.4028254747390747, 'roll': 0.8246625065803528, 'speed': 0.0}
2023-03-26 23:44:01,397 -[mav_srv] - INFO - -------GeoTag------------
2023-03-26 23:44:01,397 -[mav_srv] - INFO - {'time': 812636607, 'lat': 0.0, 'lon': 0.0, 'alt': 0.0, 'yaw': 161.331787109375, 'pitch': -1.4035584926605225, 'roll': 0.8223259449005127, 'speed': 0.0}
2023-03-26 23:44:02,399 -[mav_srv] - INFO - -------GeoTag------------
2023-03-26 23:44:02,400 -[mav_srv] - INFO - {'time': 813635583, 'lat': 0.0, 'lon': 0.0, 'alt': 0.0, 'yaw': 161.32858276367188, 'pitch': -1.3977779150009155, 'roll': 0.7981023788452148, 'speed': 0.0}
2023-03-26 23:44:03,402 -[mav_srv] - INFO - -------GeoTag------------
2023-03-26 23:44:03,402 -[mav_srv] - INFO - {'time': 814635601, 'lat': 0.0, 'lon': 0.0, 'alt': 0.0, 'yaw': 161.31939697265625, 'pitch': -1.402118444442749, 'roll': 0.7988491654396057, 'speed': 0.0}
2023-03-26 23:44:04,404 -[mav_srv] - INFO - -------GeoTag------------
2023-03-26 23:44:04,405 -[mav_srv] - INFO - {'time': 815635575, 'lat': 0.0, 'lon': 0.0, 'alt': 0.0, 'yaw': 161.3123321533203, 'pitch': -1.4012045860290527, 'roll': 0.7989421486854553, 'speed': 0.0}
2023-03-26 23:44:05,413 -[mav_srv] - INFO - -------GeoTag------------
2023-03-26 23:44:05,413 -[mav_srv] - INFO - {'time': 816636626, 'lat': 0.0, 'lon': 0.0, 'alt': 0.0, 'yaw': 161.3036651611328, 'pitch': -1.4023393392562866, 'roll': 0.7964248657226562, 'speed': 0.0}
2023-03-26 23:44:06,414 -[mav_srv] - INFO - -------GeoTag------------
2023-03-26 23:44:06,415 -[mav_srv] - INFO - {'time': 817635576, 'lat': 0.0, 'lon': 0.0, 'alt': 0.0, 'yaw': 161.29747009277344, 'pitch': -1.4047613143920898, 'roll': 0.795488715171814, 'speed': 0.0}
2023-03-26 23:44:07,416 -[mav_srv] - INFO - -------GeoTag------------
2023-03-26 23:44:07,416 -[mav_srv] - INFO - {'time': 818637321, 'lat': 0.0, 'lon': 0.0, 'alt': 0.0, 'yaw': 161.2910614013672, 'pitch': -1.4011987447738647, 'roll': 0.7969077825546265, 'speed': 0.0}
2023-03-26 23:44:08,417 -[mav_srv] - INFO - -------GeoTag------------
2023-03-26 23:44:08,417 -[mav_srv] - INFO - {'time': 819635577, 'lat': 0.0, 'lon': 0.0, 'alt': 0.0, 'yaw': 161.2848663330078, 'pitch': -1.4000294208526611, 'roll': 0.7971590161323547, 'speed': 0.0}
2023-03-26 23:44:09,418 -[mav_srv] - INFO - -------GeoTag------------
2023-03-26 23:44:09,419 -[mav_srv] - INFO - {'time': 820636706, 'lat': 0.0, 'lon': 0.0, 'alt': 0.0, 'yaw': 161.28726196289062, 'pitch': -1.3996299505233765, 'roll': 0.7973808646202087, 'speed': 0.0}
2023-03-26 23:44:10,426 -[mav_srv] - INFO - -------GeoTag------------
2023-03-26 23:44:10,427 -[mav_srv] - INFO - {'time': 821636612, 'lat': 0.0, 'lon': 0.0, 'alt': 0.0, 'yaw': 161.2867431640625, 'pitch': -1.4030450582504272, 'roll': 0.7927879095077515, 'speed': 0.0}
2023-03-26 23:44:11,428 -[mav_srv] - INFO - -------GeoTag------------
2023-03-26 23:44:11,429 -[mav_srv] - INFO - {'time': 822637661, 'lat': 0.0, 'lon': 0.0, 'alt': 0.0, 'yaw': 161.27813720703125, 'pitch': -1.4011234045028687, 'roll': 0.7941142320632935, 'speed': 0.0}
2023-03-26 23:44:12,431 -[mav_srv] - INFO - -------GeoTag------------
2023-03-26 23:44:12,431 -[mav_srv] - INFO - {'time': 823636606, 'lat': 0.0, 'lon': 0.0, 'alt': 0.0, 'yaw': 161.28985595703125, 'pitch': -1.3982951641082764, 'roll': 0.789950966835022, 'speed': 0.0}
2023-03-26 23:44:13,433 -[mav_srv] - INFO - -------GeoTag------------
2023-03-26 23:44:13,433 -[mav_srv] - INFO - {'time': 824636606, 'lat': 0.0, 'lon': 0.0, 'alt': 0.0, 'yaw': 161.27804565429688, 'pitch': -1.4008382558822632, 'roll': 0.7899219989776611, 'speed': 0.0}
2023-03-26 23:44:14,436 -[mav_srv] - INFO - -------GeoTag------------
2023-03-26 23:44:14,437 -[mav_srv] - INFO - {'time': 825835578, 'lat': 0.0, 'lon': 0.0, 'alt': 0.0, 'yaw': 161.26942443847656, 'pitch': -1.3991698026657104, 'roll': 0.7916349172592163, 'speed': 0.0}
2023-03-26 23:44:15,446 -[mav_srv] - INFO - -------GeoTag------------
2023-03-26 23:44:15,446 -[mav_srv] - INFO - {'time': 826836620, 'lat': 0.0, 'lon': 0.0, 'alt': 0.0, 'yaw': 161.2772216796875, 'pitch': -1.402477502822876, 'roll': 0.7916053533554077, 'speed': 0.0}
2023-03-26 23:44:16,447 -[mav_srv] - INFO - -------GeoTag------------
2023-03-26 23:44:16,447 -[mav_srv] - INFO - {'time': 827834267, 'lat': 0.0, 'lon': 0.0, 'alt': 0.0, 'yaw': 161.27789306640625, 'pitch': -1.4072139263153076, 'roll': 0.7923136949539185, 'speed': 0.0}
2023-03-26 23:44:17,450 -[mav_srv] - INFO - -------GeoTag------------
2023-03-26 23:44:17,450 -[mav_srv] - INFO - {'time': 828835583, 'lat': 0.0, 'lon': 0.0, 'alt': 0.0, 'yaw': 161.26785278320312, 'pitch': -1.3988782167434692, 'roll': 0.7926486730575562, 'speed': 0.0}
2023-03-26 23:44:18,451 -[mav_srv] - INFO - -------GeoTag------------
2023-03-26 23:44:18,452 -[mav_srv] - INFO - {'time': 829835051, 'lat': 0.0, 'lon': 0.0, 'alt': 0.0, 'yaw': 161.2768096923828, 'pitch': -1.4016891717910767, 'roll': 0.791201114654541, 'speed': 0.0}
2023-03-26 23:44:19,455 -[mav_srv] - INFO - -------GeoTag------------
2023-03-26 23:44:19,456 -[mav_srv] - INFO - {'time': 830834591, 'lat': 0.0, 'lon': 0.0, 'alt': 0.0, 'yaw': 161.25572204589844, 'pitch': -1.4059393405914307, 'roll': 0.8005141615867615, 'speed': 0.0}
2023-03-26 23:44:20,459 -[mav_srv] - INFO - -------GeoTag------------
2023-03-26 23:44:20,459 -[mav_srv] - INFO - {'time': 831836625, 'lat': 0.0, 'lon': 0.0, 'alt': 0.0, 'yaw': 161.26239013671875, 'pitch': -1.4057828187942505, 'roll': 0.7972219586372375, 'speed': 0.0}
2023-03-26 23:44:21,461 -[mav_srv] - INFO - -------GeoTag------------
2023-03-26 23:44:21,462 -[mav_srv] - INFO - {'time': 832835575, 'lat': 0.0, 'lon': 0.0, 'alt': 0.0, 'yaw': 161.26119995117188, 'pitch': -1.4025181531906128, 'roll': 0.7969270348548889, 'speed': 0.0}
2023-03-26 23:44:22,463 -[mav_srv] - INFO - -------GeoTag------------
2023-03-26 23:44:22,463 -[mav_srv] - INFO - {'time': 833834576, 'lat': 0.0, 'lon': 0.0, 'alt': 0.0, 'yaw': 161.25267028808594, 'pitch': -1.4010430574417114, 'roll': 0.7976214289665222, 'speed': 0.0}
2023-03-26 23:44:23,466 -[mav_srv] - INFO - -------GeoTag------------
2023-03-26 23:44:23,467 -[mav_srv] - INFO - {'time': 834834577, 'lat': 0.0, 'lon': 0.0, 'alt': 0.0, 'yaw': 161.25613403320312, 'pitch': -1.4076074361801147, 'roll': 0.7996233105659485, 'speed': 0.0}
2023-03-26 23:44:24,468 -[mav_srv] - INFO - -------GeoTag------------
2023-03-26 23:44:24,469 -[mav_srv] - INFO - {'time': 835834577, 'lat': 0.0, 'lon': 0.0, 'alt': 0.0, 'yaw': 161.25277709960938, 'pitch': -1.406356692314148, 'roll': 0.7975500822067261, 'speed': 0.0}
2023-03-26 23:44:25,478 -[mav_srv] - INFO - -------GeoTag------------
2023-03-26 23:44:25,478 -[mav_srv] - INFO - {'time': 836835596, 'lat': 0.0, 'lon': 0.0, 'alt': 0.0, 'yaw': 161.27655029296875, 'pitch': -1.4035332202911377, 'roll': 0.7990676164627075, 'speed': 0.0}
2023-03-26 23:44:26,479 -[mav_srv] - INFO - -------GeoTag------------
2023-03-26 23:44:26,480 -[mav_srv] - INFO - {'time': 837835577, 'lat': 0.0, 'lon': 0.0, 'alt': 0.0, 'yaw': 161.29055786132812, 'pitch': -1.4067507982254028, 'roll': 0.7896218299865723, 'speed': 0.0}
2023-03-26 23:44:27,482 -[mav_srv] - INFO - -------GeoTag------------
2023-03-26 23:44:27,483 -[mav_srv] - INFO - {'time': 838834966, 'lat': 0.0, 'lon': 0.0, 'alt': 0.0, 'yaw': 161.28836059570312, 'pitch': -1.4020136594772339, 'roll': 0.7979817986488342, 'speed': 0.0}
2023-03-26 23:44:28,483 -[mav_srv] - INFO - -------GeoTag------------
2023-03-26 23:44:28,484 -[mav_srv] - INFO - {'time': 839835582, 'lat': 0.0, 'lon': 0.0, 'alt': 0.0, 'yaw': 161.30581665039062, 'pitch': -1.4048891067504883, 'roll': 0.7990175485610962, 'speed': 0.0}
2023-03-26 23:44:29,486 -[mav_srv] - INFO - -------GeoTag------------
2023-03-26 23:44:29,486 -[mav_srv] - INFO - {'time': 840834591, 'lat': 0.0, 'lon': 0.0, 'alt': 0.0, 'yaw': 161.30946350097656, 'pitch': -1.4004123210906982, 'roll': 0.8013185262680054, 'speed': 0.0}
2023-03-26 23:44:30,496 -[mav_srv] - INFO - -------GeoTag------------
2023-03-26 23:44:30,497 -[mav_srv] - INFO - {'time': 841836642, 'lat': 0.0, 'lon': 0.0, 'alt': 0.0, 'yaw': 161.30357360839844, 'pitch': -1.4028863906860352, 'roll': 0.8015125393867493, 'speed': 0.0}
2023-03-26 23:44:31,498 -[mav_srv] - INFO - -------GeoTag------------
2023-03-26 23:44:31,498 -[mav_srv] - INFO - {'time': 842835577, 'lat': 0.0, 'lon': 0.0, 'alt': 0.0, 'yaw': 161.32217407226562, 'pitch': -1.4011235237121582, 'roll': 0.8014631867408752, 'speed': 0.0}
2023-03-26 23:44:32,500 -[mav_srv] - INFO - -------GeoTag------------
2023-03-26 23:44:32,500 -[mav_srv] - INFO - {'time': 843835648, 'lat': 0.0, 'lon': 0.0, 'alt': 0.0, 'yaw': 161.33004760742188, 'pitch': -1.4009641408920288, 'roll': 0.7991231083869934, 'speed': 0.0}
2023-03-26 23:44:33,501 -[mav_srv] - INFO - -------GeoTag------------
2023-03-26 23:44:33,501 -[mav_srv] - INFO - {'time': 844834582, 'lat': 0.0, 'lon': 0.0, 'alt': 0.0, 'yaw': 161.333740234375, 'pitch': -1.4034525156021118, 'roll': 0.8013014197349548, 'speed': 0.0}
2023-03-26 23:44:34,503 -[mav_srv] - INFO - -------GeoTag------------
2023-03-26 23:44:34,510 -[mav_srv] - INFO - {'time': 845834682, 'lat': 0.0, 'lon': 0.0, 'alt': 0.0, 'yaw': 161.3391876220703, 'pitch': -1.402593731880188, 'roll': 0.801423192024231, 'speed': 0.0}
2023-03-26 23:44:35,512 -[mav_srv] - INFO - -------GeoTag------------
2023-03-26 23:44:35,512 -[mav_srv] - INFO - {'time': 846834575, 'lat': 0.0, 'lon': 0.0, 'alt': 0.0, 'yaw': 161.33621215820312, 'pitch': -1.405816912651062, 'roll': 0.8002673387527466, 'speed': 0.0}
2023-03-26 23:44:36,514 -[mav_srv] - INFO - -------GeoTag------------
2023-03-26 23:44:36,514 -[mav_srv] - INFO - {'time': 847835593, 'lat': 0.0, 'lon': 0.0, 'alt': 0.0, 'yaw': 161.3514404296875, 'pitch': -1.4080066680908203, 'roll': 0.8040374517440796, 'speed': 0.0}
2023-03-26 23:44:37,515 -[mav_srv] - INFO - -------GeoTag------------
2023-03-26 23:44:37,516 -[mav_srv] - INFO - {'time': 848834576, 'lat': 0.0, 'lon': 0.0, 'alt': 0.0, 'yaw': 161.36720275878906, 'pitch': -1.4024598598480225, 'roll': 0.802670955657959, 'speed': 0.0}
2023-03-26 23:44:38,518 -[mav_srv] - INFO - -------GeoTag------------
2023-03-26 23:44:38,519 -[mav_srv] - INFO - {'time': 849834582, 'lat': 0.0, 'lon': 0.0, 'alt': 0.0, 'yaw': 161.34292602539062, 'pitch': -1.401288628578186, 'roll': 0.8047032952308655, 'speed': 0.0}
2023-03-26 23:44:39,521 -[mav_srv] - INFO - -------GeoTag------------
2023-03-26 23:44:39,528 -[mav_srv] - INFO - {'time': 850835581, 'lat': 0.0, 'lon': 0.0, 'alt': 0.0, 'yaw': 161.35841369628906, 'pitch': -1.3997235298156738, 'roll': 0.8015874624252319, 'speed': 0.0}
2023-03-26 23:44:40,529 -[mav_srv] - INFO - -------GeoTag------------
2023-03-26 23:44:40,530 -[mav_srv] - INFO - {'time': 851834582, 'lat': 0.0, 'lon': 0.0, 'alt': 0.0, 'yaw': 161.3384552001953, 'pitch': -1.3995002508163452, 'roll': 0.8024773001670837, 'speed': 0.0}
2023-03-26 23:44:41,531 -[mav_srv] - INFO - -------GeoTag------------
2023-03-26 23:44:41,531 -[mav_srv] - INFO - {'time': 852835584, 'lat': 0.0, 'lon': 0.0, 'alt': 0.0, 'yaw': 161.3538055419922, 'pitch': -1.4003404378890991, 'roll': 0.8015173077583313, 'speed': 0.0}
2023-03-26 23:44:42,534 -[mav_srv] - INFO - -------GeoTag------------
2023-03-26 23:44:42,534 -[mav_srv] - INFO - {'time': 853834578, 'lat': 0.0, 'lon': 0.0, 'alt': 0.0, 'yaw': 161.35179138183594, 'pitch': -1.3996433019638062, 'roll': 0.8039225339889526, 'speed': 0.0}
2023-03-26 23:44:43,536 -[mav_srv] - INFO - -------GeoTag------------
2023-03-26 23:44:43,536 -[mav_srv] - INFO - {'time': 854834576, 'lat': 0.0, 'lon': 0.0, 'alt': 0.0, 'yaw': 161.35523986816406, 'pitch': -1.3990343809127808, 'roll': 0.80793297290802, 'speed': 0.0}
2023-03-26 23:44:44,538 -[mav_srv] - INFO - -------GeoTag------------
2023-03-26 23:44:44,545 -[mav_srv] - INFO - {'time': 855834575, 'lat': 0.0, 'lon': 0.0, 'alt': 0.0, 'yaw': 161.37008666992188, 'pitch': -1.404107689857483, 'roll': 0.8007218241691589, 'speed': 0.0}
2023-03-26 23:44:45,548 -[mav_srv] - INFO - -------GeoTag------------
2023-03-26 23:44:45,548 -[mav_srv] - INFO - {'time': 856836682, 'lat': 0.0, 'lon': 0.0, 'alt': 0.0, 'yaw': 161.39134216308594, 'pitch': -1.4041005373001099, 'roll': 0.8000640273094177, 'speed': 0.0}
2023-03-26 23:44:46,550 -[mav_srv] - INFO - -------GeoTag------------
2023-03-26 23:44:46,550 -[mav_srv] - INFO - {'time': 857834589, 'lat': 0.0, 'lon': 0.0, 'alt': 0.0, 'yaw': 161.3790283203125, 'pitch': -1.4046639204025269, 'roll': 0.8047406673431396, 'speed': 0.0}
2023-03-26 23:44:47,552 -[mav_srv] - INFO - -------GeoTag------------
2023-03-26 23:44:47,552 -[mav_srv] - INFO - {'time': 858834584, 'lat': 0.0, 'lon': 0.0, 'alt': 0.0, 'yaw': 161.4027099609375, 'pitch': -1.4131840467453003, 'roll': 0.7958460450172424, 'speed': 0.0}
2023-03-26 23:44:48,554 -[mav_srv] - INFO - -------GeoTag------------
2023-03-26 23:44:48,554 -[mav_srv] - INFO - {'time': 859835583, 'lat': 0.0, 'lon': 0.0, 'alt': 0.0, 'yaw': 161.39381408691406, 'pitch': -1.4148491621017456, 'roll': 0.7954784035682678, 'speed': 0.0}
2023-03-26 23:44:49,555 -[mav_srv] - INFO - -------GeoTag------------
2023-03-26 23:44:49,556 -[mav_srv] - INFO - {'time': 860833576, 'lat': 0.0, 'lon': 0.0, 'alt': 0.0, 'yaw': 161.3936767578125, 'pitch': -1.4134570360183716, 'roll': 0.7988317608833313, 'speed': 0.0}
2023-03-26 23:44:50,557 -[mav_srv] - INFO - -------GeoTag------------
2023-03-26 23:44:50,557 -[mav_srv] - INFO - {'time': 861834575, 'lat': 0.0, 'lon': 0.0, 'alt': 0.0, 'yaw': 161.3887481689453, 'pitch': -1.4118636846542358, 'roll': 0.8003206849098206, 'speed': 0.0}
2023-03-26 23:44:51,559 -[mav_srv] - INFO - -------GeoTag------------
2023-03-26 23:44:51,559 -[mav_srv] - INFO - {'time': 862834576, 'lat': 0.0, 'lon': 0.0, 'alt': 0.0, 'yaw': 161.3872528076172, 'pitch': -1.407856822013855, 'roll': 0.806327223777771, 'speed': 0.0}
2023-03-26 23:44:52,560 -[mav_srv] - INFO - -------GeoTag------------
2023-03-26 23:44:52,561 -[mav_srv] - INFO - {'time': 863833784, 'lat': 0.0, 'lon': 0.0, 'alt': 0.0, 'yaw': 161.38392639160156, 'pitch': -1.4074084758758545, 'roll': 0.8057137727737427, 'speed': 0.0}
2023-03-26 23:44:53,563 -[mav_srv] - INFO - -------GeoTag------------
2023-03-26 23:44:53,563 -[mav_srv] - INFO - {'time': 864833676, 'lat': 0.0, 'lon': 0.0, 'alt': 0.0, 'yaw': 161.4019317626953, 'pitch': -1.4086008071899414, 'roll': 0.8038346767425537, 'speed': 0.0}
2023-03-26 23:44:54,565 -[mav_srv] - INFO - -------GeoTag------------
2023-03-26 23:44:54,565 -[mav_srv] - INFO - {'time': 865833576, 'lat': 0.0, 'lon': 0.0, 'alt': 0.0, 'yaw': 161.38174438476562, 'pitch': -1.41321861743927, 'roll': 0.8044716715812683, 'speed': 0.0}
2023-03-26 23:44:55,567 -[mav_srv] - INFO - -------GeoTag------------
2023-03-26 23:44:55,567 -[mav_srv] - INFO - {'time': 866833797, 'lat': 0.0, 'lon': 0.0, 'alt': 0.0, 'yaw': 161.394775390625, 'pitch': -1.417426347732544, 'roll': 0.8028575778007507, 'speed': 0.0}
2023-03-26 23:44:56,569 -[mav_srv] - INFO - -------GeoTag------------
2023-03-26 23:44:56,570 -[mav_srv] - INFO - {'time': 867833576, 'lat': 0.0, 'lon': 0.0, 'alt': 0.0, 'yaw': 161.38302612304688, 'pitch': -1.4159713983535767, 'roll': 0.8003913164138794, 'speed': 0.0}
2023-03-26 23:44:57,571 -[mav_srv] - INFO - -------GeoTag------------
2023-03-26 23:44:57,571 -[mav_srv] - INFO - {'time': 868834582, 'lat': 0.0, 'lon': 0.0, 'alt': 0.0, 'yaw': 161.41006469726562, 'pitch': -1.413454532623291, 'roll': 0.7997257113456726, 'speed': 0.0}
2023-03-26 23:44:58,573 -[mav_srv] - INFO - -------GeoTag------------
2023-03-26 23:44:58,574 -[mav_srv] - INFO - {'time': 869833589, 'lat': 0.0, 'lon': 0.0, 'alt': 0.0, 'yaw': 161.4283905029297, 'pitch': -1.4140448570251465, 'roll': 0.8019300103187561, 'speed': 0.0}
2023-03-26 23:44:59,575 -[mav_srv] - INFO - -------GeoTag------------
2023-03-26 23:44:59,577 -[mav_srv] - INFO - {'time': 870834574, 'lat': 0.0, 'lon': 0.0, 'alt': 0.0, 'yaw': 161.4306640625, 'pitch': -1.4107431173324585, 'roll': 0.8020020723342896, 'speed': 0.0}
2023-03-26 23:45:00,578 -[mav_srv] - INFO - -------GeoTag------------
2023-03-26 23:45:00,579 -[mav_srv] - INFO - {'time': 871833791, 'lat': 0.0, 'lon': 0.0, 'alt': 0.0, 'yaw': 161.42788696289062, 'pitch': -1.411486029624939, 'roll': 0.8002557754516602, 'speed': 0.0}
2023-03-26 23:45:01,580 -[mav_srv] - INFO - -------GeoTag------------
2023-03-26 23:45:01,580 -[mav_srv] - INFO - {'time': 872835581, 'lat': 0.0, 'lon': 0.0, 'alt': 0.0, 'yaw': 161.43824768066406, 'pitch': -1.4048361778259277, 'roll': 0.8020145297050476, 'speed': 0.0}
2023-03-26 23:45:02,582 -[mav_srv] - INFO - -------GeoTag------------
2023-03-26 23:45:02,583 -[mav_srv] - INFO - {'time': 873833589, 'lat': 0.0, 'lon': 0.0, 'alt': 0.0, 'yaw': 161.42356872558594, 'pitch': -1.4036003351211548, 'roll': 0.7990330457687378, 'speed': 0.0}
2023-03-26 23:45:03,584 -[mav_srv] - INFO - -------GeoTag------------
2023-03-26 23:45:03,585 -[mav_srv] - INFO - {'time': 874833576, 'lat': 0.0, 'lon': 0.0, 'alt': 0.0, 'yaw': 161.43313598632812, 'pitch': -1.4030078649520874, 'roll': 0.798998236656189, 'speed': 0.0}
2023-03-26 23:45:04,586 -[mav_srv] - INFO - -------GeoTag------------
2023-03-26 23:45:04,586 -[mav_srv] - INFO - {'time': 875834623, 'lat': 0.0, 'lon': 0.0, 'alt': 0.0, 'yaw': 161.41969299316406, 'pitch': -1.4043546915054321, 'roll': 0.7958394289016724, 'speed': 0.0}
2023-03-26 23:45:05,587 -[mav_srv] - INFO - -------GeoTag------------
2023-03-26 23:45:05,588 -[mav_srv] - INFO - {'time': 876834577, 'lat': 0.0, 'lon': 0.0, 'alt': 0.0, 'yaw': 161.41261291503906, 'pitch': -1.4004278182983398, 'roll': 0.8000466823577881, 'speed': 0.0}
2023-03-26 23:45:06,591 -[mav_srv] - INFO - -------GeoTag------------
2023-03-26 23:45:06,591 -[mav_srv] - INFO - {'time': 877833575, 'lat': 0.0, 'lon': 0.0, 'alt': 0.0, 'yaw': 161.41860961914062, 'pitch': -1.4024890661239624, 'roll': 0.7971845865249634, 'speed': 0.0}
2023-03-26 23:45:07,592 -[mav_srv] - INFO - -------GeoTag------------
2023-03-26 23:45:07,593 -[mav_srv] - INFO - {'time': 878833592, 'lat': 0.0, 'lon': 0.0, 'alt': 0.0, 'yaw': 161.39158630371094, 'pitch': -1.4008952379226685, 'roll': 0.7972475290298462, 'speed': 0.0}
2023-03-26 23:45:08,595 -[mav_srv] - INFO - -------GeoTag------------
2023-03-26 23:45:08,595 -[mav_srv] - INFO - {'time': 879834582, 'lat': 0.0, 'lon': 0.0, 'alt': 0.0, 'yaw': 161.40013122558594, 'pitch': -1.3993546962738037, 'roll': 0.7987027764320374, 'speed': 0.0}
2023-03-26 23:45:09,596 -[mav_srv] - INFO - -------GeoTag------------
2023-03-26 23:45:09,597 -[mav_srv] - INFO - {'time': 880834577, 'lat': 0.0, 'lon': 0.0, 'alt': 0.0, 'yaw': 161.3866729736328, 'pitch': -1.3964004516601562, 'roll': 0.802562952041626, 'speed': 0.0}
2023-03-26 23:45:10,598 -[mav_srv] - INFO - -------GeoTag------------
2023-03-26 23:45:10,599 -[mav_srv] - INFO - {'time': 881833578, 'lat': 0.0, 'lon': 0.0, 'alt': 0.0, 'yaw': 161.36203002929688, 'pitch': -1.3973336219787598, 'roll': 0.8005204796791077, 'speed': 0.0}
2023-03-26 23:45:11,600 -[mav_srv] - INFO - -------GeoTag------------
2023-03-26 23:45:11,600 -[mav_srv] - INFO - {'time': 882833761, 'lat': 0.0, 'lon': 0.0, 'alt': 0.0, 'yaw': 161.38900756835938, 'pitch': -1.3942131996154785, 'roll': 0.8011494874954224, 'speed': 0.0}
2023-03-26 23:45:12,602 -[mav_srv] - INFO - -------GeoTag------------
2023-03-26 23:45:12,602 -[mav_srv] - INFO - {'time': 883834581, 'lat': 0.0, 'lon': 0.0, 'alt': 0.0, 'yaw': 161.3715362548828, 'pitch': -1.3952100276947021, 'roll': 0.795968770980835, 'speed': 0.0}
2023-03-26 23:45:13,603 -[mav_srv] - INFO - -------GeoTag------------
2023-03-26 23:45:13,603 -[mav_srv] - INFO - {'time': 884833575, 'lat': 0.0, 'lon': 0.0, 'alt': 0.0, 'yaw': 161.3334503173828, 'pitch': -1.394986629486084, 'roll': 0.7994154095649719, 'speed': 0.0}
2023-03-26 23:45:14,605 -[mav_srv] - INFO - -------GeoTag------------
2023-03-26 23:45:14,605 -[mav_srv] - INFO - {'time': 885834205, 'lat': 0.0, 'lon': 0.0, 'alt': 0.0, 'yaw': 161.3357391357422, 'pitch': -1.39451265335083, 'roll': 0.7982307076454163, 'speed': 0.0}
2023-03-26 23:45:15,606 -[mav_srv] - INFO - -------GeoTag------------
2023-03-26 23:45:15,607 -[mav_srv] - INFO - {'time': 886832600, 'lat': 0.0, 'lon': 0.0, 'alt': 0.0, 'yaw': 161.31063842773438, 'pitch': -1.3958908319473267, 'roll': 0.8017337918281555, 'speed': 0.0}
2023-03-26 23:45:16,609 -[mav_srv] - INFO - -------GeoTag------------
2023-03-26 23:45:16,610 -[mav_srv] - INFO - {'time': 887832577, 'lat': 0.0, 'lon': 0.0, 'alt': 0.0, 'yaw': 161.3192138671875, 'pitch': -1.3916099071502686, 'roll': 0.8135225772857666, 'speed': 0.0}
2023-03-26 23:45:17,611 -[mav_srv] - INFO - -------GeoTag------------
2023-03-26 23:45:17,611 -[mav_srv] - INFO - {'time': 888832582, 'lat': 0.0, 'lon': 0.0, 'alt': 0.0, 'yaw': 161.2830352783203, 'pitch': -1.395399570465088, 'roll': 0.8119210004806519, 'speed': 0.0}
2023-03-26 23:45:18,613 -[mav_srv] - INFO - -------GeoTag------------
2023-03-26 23:45:18,613 -[mav_srv] - INFO - {'time': 889832578, 'lat': 0.0, 'lon': 0.0, 'alt': 0.0, 'yaw': 161.27008056640625, 'pitch': -1.3990228176116943, 'roll': 0.8084387183189392, 'speed': 0.0}
2023-03-26 23:45:19,615 -[mav_srv] - INFO - -------GeoTag------------
2023-03-26 23:45:19,616 -[mav_srv] - INFO - {'time': 890840584, 'lat': 0.0, 'lon': 0.0, 'alt': 0.0, 'yaw': 161.26498413085938, 'pitch': -1.4132705926895142, 'roll': 0.7756615281105042, 'speed': 0.0}
2023-03-26 23:45:20,617 -[mav_srv] - INFO - -------GeoTag------------
2023-03-26 23:45:20,619 -[mav_srv] - INFO - {'time': 891833576, 'lat': 0.0, 'lon': 0.0, 'alt': 0.0, 'yaw': 161.25338745117188, 'pitch': -1.4180740118026733, 'roll': 0.7690840363502502, 'speed': 0.0}
2023-03-26 23:45:21,621 -[mav_srv] - INFO - -------GeoTag------------
2023-03-26 23:45:21,621 -[mav_srv] - INFO - {'time': 892833584, 'lat': 0.0, 'lon': 0.0, 'alt': 0.0, 'yaw': 161.26702880859375, 'pitch': -1.4233851432800293, 'roll': 0.766587495803833, 'speed': 0.0}
2023-03-26 23:45:22,622 -[mav_srv] - INFO - -------GeoTag------------
2023-03-26 23:45:22,623 -[mav_srv] - INFO - {'time': 893833575, 'lat': 0.0, 'lon': 0.0, 'alt': 0.0, 'yaw': 161.2728271484375, 'pitch': -1.4139565229415894, 'roll': 0.7749137878417969, 'speed': 0.0}
2023-03-26 23:45:23,624 -[mav_srv] - INFO - -------GeoTag------------
2023-03-26 23:45:23,624 -[mav_srv] - INFO - {'time': 894833577, 'lat': 0.0, 'lon': 0.0, 'alt': 0.0, 'yaw': 161.2790985107422, 'pitch': -1.4009240865707397, 'roll': 0.796589732170105, 'speed': 0.0}
2023-03-26 23:45:24,625 -[mav_srv] - INFO - -------GeoTag------------
2023-03-26 23:45:24,626 -[mav_srv] - INFO - {'time': 895832577, 'lat': 0.0, 'lon': 0.0, 'alt': 0.0, 'yaw': 161.30514526367188, 'pitch': -1.3982621431350708, 'roll': 0.7994933724403381, 'speed': 0.0}
2023-03-26 23:45:25,627 -[mav_srv] - INFO - -------GeoTag------------
2023-03-26 23:45:25,627 -[mav_srv] - INFO - {'time': 896833576, 'lat': 0.0, 'lon': 0.0, 'alt': 0.0, 'yaw': 161.33474731445312, 'pitch': -1.4000407457351685, 'roll': 0.801013171672821, 'speed': 0.0}
2023-03-26 23:45:26,628 -[mav_srv] - INFO - -------GeoTag------------
2023-03-26 23:45:26,629 -[mav_srv] - INFO - {'time': 897833576, 'lat': 0.0, 'lon': 0.0, 'alt': 0.0, 'yaw': 161.3373565673828, 'pitch': -1.399181842803955, 'roll': 0.8023603558540344, 'speed': 0.0}
2023-03-26 23:45:27,631 -[mav_srv] - INFO - -------GeoTag------------
2023-03-26 23:45:27,631 -[mav_srv] - INFO - {'time': 898833640, 'lat': 0.0, 'lon': 0.0, 'alt': 0.0, 'yaw': 161.3611602783203, 'pitch': -1.4010710716247559, 'roll': 0.8047475814819336, 'speed': 0.0}
2023-03-26 23:45:28,632 -[mav_srv] - INFO - -------GeoTag------------
2023-03-26 23:45:28,633 -[mav_srv] - INFO - {'time': 899835585, 'lat': 0.0, 'lon': 0.0, 'alt': 0.0, 'yaw': 161.38099670410156, 'pitch': -1.3985382318496704, 'roll': 0.8011618852615356, 'speed': 0.0}
2023-03-26 23:45:29,634 -[mav_srv] - INFO - -------GeoTag------------
2023-03-26 23:45:29,634 -[mav_srv] - INFO - {'time': 900833599, 'lat': 0.0, 'lon': 0.0, 'alt': 0.0, 'yaw': 161.38938903808594, 'pitch': -1.4110840559005737, 'roll': 0.7769811153411865, 'speed': 0.0}
2023-03-26 23:45:30,637 -[mav_srv] - INFO - -------GeoTag------------
2023-03-26 23:45:30,638 -[mav_srv] - INFO - {'time': 902033575, 'lat': 0.0, 'lon': 0.0, 'alt': 0.0, 'yaw': 161.4213104248047, 'pitch': -1.4159719944000244, 'roll': 0.7950129508972168, 'speed': 0.0}
2023-03-26 23:45:31,640 -[mav_srv] - INFO - -------GeoTag------------
2023-03-26 23:45:31,640 -[mav_srv] - INFO - {'time': 903034599, 'lat': 0.0, 'lon': 0.0, 'alt': 0.0, 'yaw': 161.40809631347656, 'pitch': -1.4089819192886353, 'roll': 0.7681434154510498, 'speed': 0.0}
2023-03-26 23:45:32,641 -[mav_srv] - INFO - -------GeoTag------------
2023-03-26 23:45:32,641 -[mav_srv] - INFO - {'time': 904034576, 'lat': 0.0, 'lon': 0.0, 'alt': 0.0, 'yaw': 161.40997314453125, 'pitch': -1.4099527597427368, 'roll': 0.7692899107933044, 'speed': 0.0}
2023-03-26 23:45:33,644 -[mav_srv] - INFO - -------GeoTag------------
2023-03-26 23:45:33,644 -[mav_srv] - INFO - {'time': 905032605, 'lat': 0.0, 'lon': 0.0, 'alt': 0.0, 'yaw': 161.43386840820312, 'pitch': -1.4101113080978394, 'roll': 0.7680628299713135, 'speed': 0.0}
2023-03-26 23:45:34,646 -[mav_srv] - INFO - -------GeoTag------------
2023-03-26 23:45:34,646 -[mav_srv] - INFO - {'time': 906032576, 'lat': 0.0, 'lon': 0.0, 'alt': 0.0, 'yaw': 161.43850708007812, 'pitch': -1.4071202278137207, 'roll': 0.7698676586151123, 'speed': 0.0}
2023-03-26 23:45:35,647 -[mav_srv] - INFO - -------GeoTag------------
2023-03-26 23:45:35,648 -[mav_srv] - INFO - {'time': 907033578, 'lat': 0.0, 'lon': 0.0, 'alt': 0.0, 'yaw': 161.45758056640625, 'pitch': -1.4068603515625, 'roll': 0.7722254395484924, 'speed': 0.0}
2023-03-26 23:45:36,649 -[mav_srv] - INFO - -------GeoTag------------
2023-03-26 23:45:36,650 -[mav_srv] - INFO - {'time': 908033014, 'lat': 0.0, 'lon': 0.0, 'alt': 0.0, 'yaw': 161.4592742919922, 'pitch': -1.40974760055542, 'roll': 0.7761489152908325, 'speed': 0.0}
2023-03-26 23:45:37,651 -[mav_srv] - INFO - -------GeoTag------------
2023-03-26 23:45:37,651 -[mav_srv] - INFO - {'time': 909032575, 'lat': 0.0, 'lon': 0.0, 'alt': 0.0, 'yaw': 161.47569274902344, 'pitch': -1.4112297296524048, 'roll': 0.7707960605621338, 'speed': 0.0}
2023-03-26 23:45:38,653 -[mav_srv] - INFO - -------GeoTag------------
2023-03-26 23:45:38,653 -[mav_srv] - INFO - {'time': 910034575, 'lat': 0.0, 'lon': 0.0, 'alt': 0.0, 'yaw': 161.50221252441406, 'pitch': -1.4174989461898804, 'roll': 0.7636445760726929, 'speed': 0.0}
2023-03-26 23:45:39,656 -[mav_srv] - INFO - -------GeoTag------------
2023-03-26 23:45:39,657 -[mav_srv] - INFO - {'time': 911034588, 'lat': 0.0, 'lon': 0.0, 'alt': 0.0, 'yaw': 161.49671936035156, 'pitch': -1.4168577194213867, 'roll': 0.7660531401634216, 'speed': 0.0}
2023-03-26 23:45:40,659 -[mav_srv] - INFO - -------GeoTag------------
2023-03-26 23:45:40,659 -[mav_srv] - INFO - {'time': 912034581, 'lat': 0.0, 'lon': 0.0, 'alt': 0.0, 'yaw': 161.5005340576172, 'pitch': -1.4169073104858398, 'roll': 0.7632835507392883, 'speed': 0.0}
2023-03-26 23:45:41,661 -[mav_srv] - INFO - -------GeoTag------------
2023-03-26 23:45:41,661 -[mav_srv] - INFO - {'time': 913032576, 'lat': 0.0, 'lon': 0.0, 'alt': 0.0, 'yaw': 161.5120391845703, 'pitch': -1.4162871837615967, 'roll': 0.7636504173278809, 'speed': 0.0}
2023-03-26 23:45:42,662 -[mav_srv] - INFO - -------GeoTag------------
2023-03-26 23:45:42,663 -[mav_srv] - INFO - {'time': 914032577, 'lat': 0.0, 'lon': 0.0, 'alt': 0.0, 'yaw': 161.50759887695312, 'pitch': -1.4172658920288086, 'roll': 0.7613356709480286, 'speed': 0.0}
2023-03-26 23:45:43,665 -[mav_srv] - INFO - -------GeoTag------------
2023-03-26 23:45:43,665 -[mav_srv] - INFO - {'time': 915033576, 'lat': 0.0, 'lon': 0.0, 'alt': 0.0, 'yaw': 161.52529907226562, 'pitch': -1.4136508703231812, 'roll': 0.7611625790596008, 'speed': 0.0}
2023-03-26 23:45:44,668 -[mav_srv] - INFO - -------GeoTag------------
2023-03-26 23:45:44,668 -[mav_srv] - INFO - {'time': 916033578, 'lat': 0.0, 'lon': 0.0, 'alt': 0.0, 'yaw': 161.53382873535156, 'pitch': -1.4115185737609863, 'roll': 0.7642638683319092, 'speed': 0.0}
2023-03-26 23:45:45,670 -[mav_srv] - INFO - -------GeoTag------------
2023-03-26 23:45:45,671 -[mav_srv] - INFO - {'time': 917032882, 'lat': 0.0, 'lon': 0.0, 'alt': 0.0, 'yaw': 161.53614807128906, 'pitch': -1.4114505052566528, 'roll': 0.766083300113678, 'speed': 0.0}
2023-03-26 23:45:46,673 -[mav_srv] - INFO - -------GeoTag------------
2023-03-26 23:45:46,673 -[mav_srv] - INFO - {'time': 918031828, 'lat': 0.0, 'lon': 0.0, 'alt': 0.0, 'yaw': 161.5528564453125, 'pitch': -1.4157400131225586, 'roll': 0.7657238245010376, 'speed': 0.0}
2023-03-26 23:45:47,675 -[mav_srv] - INFO - -------GeoTag------------
2023-03-26 23:45:47,676 -[mav_srv] - INFO - {'time': 919031599, 'lat': 0.0, 'lon': 0.0, 'alt': 0.0, 'yaw': 161.5529327392578, 'pitch': -1.4148495197296143, 'roll': 0.7665903568267822, 'speed': 0.0}
2023-03-26 23:45:48,677 -[mav_srv] - INFO - -------GeoTag------------
2023-03-26 23:45:48,678 -[mav_srv] - INFO - {'time': 920031576, 'lat': 0.0, 'lon': 0.0, 'alt': 0.0, 'yaw': 161.57608032226562, 'pitch': -1.4207618236541748, 'roll': 0.7613094449043274, 'speed': 0.0}
2023-03-26 23:45:49,679 -[mav_srv] - INFO - -------GeoTag------------
2023-03-26 23:45:49,679 -[mav_srv] - INFO - {'time': 921031577, 'lat': 0.0, 'lon': 0.0, 'alt': 0.0, 'yaw': 161.5767059326172, 'pitch': -1.4203275442123413, 'roll': 0.7633874416351318, 'speed': 0.0}
2023-03-26 23:45:50,681 -[mav_srv] - INFO - -------GeoTag------------
2023-03-26 23:45:50,681 -[mav_srv] - INFO - {'time': 922032133, 'lat': 0.0, 'lon': 0.0, 'alt': 0.0, 'yaw': 161.57615661621094, 'pitch': -1.4202921390533447, 'roll': 0.7651956081390381, 'speed': 0.0}
2023-03-26 23:45:51,684 -[mav_srv] - INFO - -------GeoTag------------
2023-03-26 23:45:51,702 -[mav_srv] - INFO - {'time': 923031582, 'lat': 0.0, 'lon': 0.0, 'alt': 0.0, 'yaw': 161.57827758789062, 'pitch': -1.421478271484375, 'roll': 0.7642911076545715, 'speed': 0.0}
2023-03-26 23:45:52,704 -[mav_srv] - INFO - -------GeoTag------------
2023-03-26 23:45:52,705 -[mav_srv] - INFO - {'time': 924031636, 'lat': 0.0, 'lon': 0.0, 'alt': 0.0, 'yaw': 161.57566833496094, 'pitch': -1.4217380285263062, 'roll': 0.7614720463752747, 'speed': 0.0}
2023-03-26 23:45:53,707 -[mav_srv] - INFO - -------GeoTag------------
2023-03-26 23:45:53,707 -[mav_srv] - INFO - {'time': 925031582, 'lat': 0.0, 'lon': 0.0, 'alt': 0.0, 'yaw': 161.58409118652344, 'pitch': -1.4222486019134521, 'roll': 0.7624415755271912, 'speed': 0.0}
2023-03-26 23:45:54,708 -[mav_srv] - INFO - -------GeoTag------------
2023-03-26 23:45:54,708 -[mav_srv] - INFO - {'time': 926033578, 'lat': 0.0, 'lon': 0.0, 'alt': 0.0, 'yaw': 161.585693359375, 'pitch': -1.414304256439209, 'roll': 0.7619257569313049, 'speed': 0.0}
2023-03-26 23:45:55,710 -[mav_srv] - INFO - -------GeoTag------------
2023-03-26 23:45:55,711 -[mav_srv] - INFO - {'time': 927033683, 'lat': 0.0, 'lon': 0.0, 'alt': 0.0, 'yaw': 161.57691955566406, 'pitch': -1.4119797945022583, 'roll': 0.7619377374649048, 'speed': 0.0}
2023-03-26 23:45:56,712 -[mav_srv] - INFO - -------GeoTag------------
2023-03-26 23:45:56,713 -[mav_srv] - INFO - {'time': 928031576, 'lat': 0.0, 'lon': 0.0, 'alt': 0.0, 'yaw': 161.57850646972656, 'pitch': -1.412200927734375, 'roll': 0.7630975842475891, 'speed': 0.0}
2023-03-26 23:45:57,719 -[mav_srv] - INFO - -------GeoTag------------
2023-03-26 23:45:57,720 -[mav_srv] - INFO - {'time': 929031583, 'lat': 0.0, 'lon': 0.0, 'alt': 0.0, 'yaw': 161.580810546875, 'pitch': -1.4081674814224243, 'roll': 0.7677007913589478, 'speed': 0.0}
2023-03-26 23:45:58,721 -[mav_srv] - INFO - -------GeoTag------------
2023-03-26 23:45:58,723 -[mav_srv] - INFO - {'time': 930032584, 'lat': 0.0, 'lon': 0.0, 'alt': 0.0, 'yaw': 161.57196044921875, 'pitch': -1.4079113006591797, 'roll': 0.7669230103492737, 'speed': 0.0}
2023-03-26 23:45:59,725 -[mav_srv] - INFO - -------GeoTag------------
2023-03-26 23:45:59,727 -[mav_srv] - INFO - {'time': 931032040, 'lat': 0.0, 'lon': 0.0, 'alt': 0.0, 'yaw': 161.583251953125, 'pitch': -1.4057265520095825, 'roll': 0.7681148052215576, 'speed': 0.0}
2023-03-26 23:46:00,736 -[mav_srv] - INFO - -------GeoTag------------
2023-03-26 23:46:00,737 -[mav_srv] - INFO - {'time': 932032575, 'lat': 0.0, 'lon': 0.0, 'alt': 0.0, 'yaw': 161.59210205078125, 'pitch': -1.428621768951416, 'roll': 0.7235063314437866, 'speed': 0.0}
2023-03-26 23:46:01,738 -[mav_srv] - INFO - -------GeoTag------------
2023-03-26 23:46:01,738 -[mav_srv] - INFO - {'time': 933031576, 'lat': 0.0, 'lon': 0.0, 'alt': 0.0, 'yaw': 161.5874786376953, 'pitch': -1.4349979162216187, 'roll': 0.6984575390815735, 'speed': 0.0}
2023-03-26 23:46:02,740 -[mav_srv] - INFO - -------GeoTag------------
2023-03-26 23:46:02,741 -[mav_srv] - INFO - {'time': 934031757, 'lat': 0.0, 'lon': 0.0, 'alt': 0.0, 'yaw': 161.59059143066406, 'pitch': -1.4417498111724854, 'roll': 0.6834759712219238, 'speed': 0.0}
2023-03-26 23:46:03,743 -[mav_srv] - INFO - -------GeoTag------------
2023-03-26 23:46:03,744 -[mav_srv] - INFO - {'time': 935031578, 'lat': 0.0, 'lon': 0.0, 'alt': 0.0, 'yaw': 161.57186889648438, 'pitch': -1.4436876773834229, 'roll': 0.6664549112319946, 'speed': 0.0}
2023-03-26 23:46:04,745 -[mav_srv] - INFO - -------GeoTag------------
2023-03-26 23:46:04,746 -[mav_srv] - INFO - {'time': 936031575, 'lat': 0.0, 'lon': 0.0, 'alt': 0.0, 'yaw': 161.587646484375, 'pitch': -1.457865595817566, 'roll': 0.6414135098457336, 'speed': 0.0}
2023-03-26 23:46:05,747 -[mav_srv] - INFO - -------GeoTag------------
2023-03-26 23:46:05,748 -[mav_srv] - INFO - {'time': 937032576, 'lat': 0.0, 'lon': 0.0, 'alt': 0.0, 'yaw': 161.59320068359375, 'pitch': -1.4619157314300537, 'roll': 0.6377500891685486, 'speed': 0.0}
2023-03-26 23:46:06,750 -[mav_srv] - INFO - -------GeoTag------------
2023-03-26 23:46:06,750 -[mav_srv] - INFO - {'time': 938032582, 'lat': 0.0, 'lon': 0.0, 'alt': 0.0, 'yaw': 161.59190368652344, 'pitch': -1.4635424613952637, 'roll': 0.6380560994148254, 'speed': 0.0}
2023-03-26 23:46:07,752 -[mav_srv] - INFO - -------GeoTag------------
2023-03-26 23:46:07,752 -[mav_srv] - INFO - {'time': 939031575, 'lat': 0.0, 'lon': 0.0, 'alt': 0.0, 'yaw': 161.60496520996094, 'pitch': -1.46168053150177, 'roll': 0.6374492645263672, 'speed': 0.0}
2023-03-26 23:46:08,753 -[mav_srv] - INFO - -------GeoTag------------
2023-03-26 23:46:08,753 -[mav_srv] - INFO - {'time': 940030576, 'lat': 0.0, 'lon': 0.0, 'alt': 0.0, 'yaw': 161.60247802734375, 'pitch': -1.4684659242630005, 'roll': 0.634572446346283, 'speed': 0.0}
2023-03-26 23:46:09,754 -[mav_srv] - INFO - -------GeoTag------------
2023-03-26 23:46:09,754 -[mav_srv] - INFO - {'time': 941030582, 'lat': 0.0, 'lon': 0.0, 'alt': 0.0, 'yaw': 161.6043701171875, 'pitch': -1.4675631523132324, 'roll': 0.6371427774429321, 'speed': 0.0}
2023-03-26 23:46:10,755 -[mav_srv] - INFO - -------GeoTag------------
2023-03-26 23:46:10,756 -[mav_srv] - INFO - {'time': 942030577, 'lat': 0.0, 'lon': 0.0, 'alt': 0.0, 'yaw': 161.6224365234375, 'pitch': -1.4684408903121948, 'roll': 0.6363332867622375, 'speed': 0.0}
2023-03-26 23:46:11,757 -[mav_srv] - INFO - -------GeoTag------------
2023-03-26 23:46:11,759 -[mav_srv] - INFO - {'time': 943031575, 'lat': 0.0, 'lon': 0.0, 'alt': 0.0, 'yaw': 161.62730407714844, 'pitch': -1.4648375511169434, 'roll': 0.6350383758544922, 'speed': 0.0}
2023-03-26 23:46:12,760 -[mav_srv] - INFO - -------GeoTag------------
2023-03-26 23:46:12,761 -[mav_srv] - INFO - {'time': 944031582, 'lat': 0.0, 'lon': 0.0, 'alt': 0.0, 'yaw': 161.62437438964844, 'pitch': -1.462273359298706, 'roll': 0.634530782699585, 'speed': 0.0}
2023-03-26 23:46:13,762 -[mav_srv] - INFO - -------GeoTag------------
2023-03-26 23:46:13,762 -[mav_srv] - INFO - {'time': 945031591, 'lat': 0.0, 'lon': 0.0, 'alt': 0.0, 'yaw': 161.63343811035156, 'pitch': -1.4684253931045532, 'roll': 0.6311792135238647, 'speed': 0.0}
2023-03-26 23:46:14,763 -[mav_srv] - INFO - -------GeoTag------------
2023-03-26 23:46:14,764 -[mav_srv] - INFO - {'time': 946030591, 'lat': 0.0, 'lon': 0.0, 'alt': 0.0, 'yaw': 161.6166229248047, 'pitch': -1.4693107604980469, 'roll': 0.6264687776565552, 'speed': 0.0}
2023-03-26 23:46:15,766 -[mav_srv] - INFO - -------GeoTag------------
2023-03-26 23:46:15,766 -[mav_srv] - INFO - {'time': 947031770, 'lat': 0.0, 'lon': 0.0, 'alt': 0.0, 'yaw': 161.61383056640625, 'pitch': -1.4673761129379272, 'roll': 0.6329154372215271, 'speed': 0.0}
2023-03-26 23:46:16,768 -[mav_srv] - INFO - -------GeoTag------------
2023-03-26 23:46:16,768 -[mav_srv] - INFO - {'time': 948030576, 'lat': 0.0, 'lon': 0.0, 'alt': 0.0, 'yaw': 161.6158905029297, 'pitch': -1.4674324989318848, 'roll': 0.6254209876060486, 'speed': 0.0}
2023-03-26 23:46:17,771 -[mav_srv] - INFO - -------GeoTag------------
2023-03-26 23:46:17,772 -[mav_srv] - INFO - {'time': 949030576, 'lat': 0.0, 'lon': 0.0, 'alt': 0.0, 'yaw': 161.61917114257812, 'pitch': -1.4677324295043945, 'roll': 0.6248474717140198, 'speed': 0.0}
2023-03-26 23:46:18,775 -[mav_srv] - INFO - -------GeoTag------------
2023-03-26 23:46:18,775 -[mav_srv] - INFO - {'time': 950031649, 'lat': 0.0, 'lon': 0.0, 'alt': 0.0, 'yaw': 161.6278533935547, 'pitch': -1.465903878211975, 'roll': 0.6348884105682373, 'speed': 0.0}
2023-03-26 23:46:19,776 -[mav_srv] - INFO - -------GeoTag------------
2023-03-26 23:46:19,777 -[mav_srv] - INFO - {'time': 951030576, 'lat': 0.0, 'lon': 0.0, 'alt': 0.0, 'yaw': 161.6021270751953, 'pitch': -1.4574710130691528, 'roll': 0.646648645401001, 'speed': 0.0}
2023-03-26 23:46:20,778 -[mav_srv] - INFO - -------GeoTag------------
2023-03-26 23:46:20,778 -[mav_srv] - INFO - {'time': 952030577, 'lat': 0.0, 'lon': 0.0, 'alt': 0.0, 'yaw': 161.6058807373047, 'pitch': -1.4577354192733765, 'roll': 0.6447209715843201, 'speed': 0.0}
2023-03-26 23:46:21,779 -[mav_srv] - INFO - -------GeoTag------------
2023-03-26 23:46:21,780 -[mav_srv] - INFO - {'time': 953031575, 'lat': 0.0, 'lon': 0.0, 'alt': 0.0, 'yaw': 161.60696411132812, 'pitch': -1.4544126987457275, 'roll': 0.6426557302474976, 'speed': 0.0}
2023-03-26 23:46:22,781 -[mav_srv] - INFO - -------GeoTag------------
2023-03-26 23:46:22,781 -[mav_srv] - INFO - {'time': 954031576, 'lat': 0.0, 'lon': 0.0, 'alt': 0.0, 'yaw': 161.5948028564453, 'pitch': -1.4630424976348877, 'roll': 0.6266548037528992, 'speed': 0.0}
2023-03-26 23:46:23,783 -[mav_srv] - INFO - -------GeoTag------------
2023-03-26 23:46:23,783 -[mav_srv] - INFO - {'time': 955030581, 'lat': 0.0, 'lon': 0.0, 'alt': 0.0, 'yaw': 161.60472106933594, 'pitch': -1.464678168296814, 'roll': 0.6240212917327881, 'speed': 0.0}
2023-03-26 23:46:24,784 -[mav_srv] - INFO - -------GeoTag------------
2023-03-26 23:46:24,785 -[mav_srv] - INFO - {'time': 956030778, 'lat': 0.0, 'lon': 0.0, 'alt': 0.0, 'yaw': 161.59844970703125, 'pitch': -1.4647961854934692, 'roll': 0.6258129477500916, 'speed': 0.0}
2023-03-26 23:46:25,786 -[mav_srv] - INFO - -------GeoTag------------
2023-03-26 23:46:25,786 -[mav_srv] - INFO - {'time': 957031576, 'lat': 0.0, 'lon': 0.0, 'alt': 0.0, 'yaw': 161.60751342773438, 'pitch': -1.4508527517318726, 'roll': 0.6528536677360535, 'speed': 0.0}
2023-03-26 23:46:26,788 -[mav_srv] - INFO - -------GeoTag------------
2023-03-26 23:46:26,789 -[mav_srv] - INFO - {'time': 958030576, 'lat': 0.0, 'lon': 0.0, 'alt': 0.0, 'yaw': 161.6247100830078, 'pitch': -1.4477137327194214, 'roll': 0.6581019163131714, 'speed': 0.0}
2023-03-26 23:46:27,792 -[mav_srv] - INFO - -------GeoTag------------
2023-03-26 23:46:27,792 -[mav_srv] - INFO - {'time': 959031575, 'lat': 0.0, 'lon': 0.0, 'alt': 0.0, 'yaw': 161.58277893066406, 'pitch': -1.448825716972351, 'roll': 0.6592637300491333, 'speed': 0.0}
2023-03-26 23:46:28,793 -[mav_srv] - INFO - -------GeoTag------------
2023-03-26 23:46:28,819 -[mav_srv] - INFO - {'time': 960031575, 'lat': 0.0, 'lon': 0.0, 'alt': 0.0, 'yaw': 161.6002655029297, 'pitch': -1.447018027305603, 'roll': 0.6595981121063232, 'speed': 0.0}
2023-03-26 23:46:29,821 -[mav_srv] - INFO - -------GeoTag------------
2023-03-26 23:46:29,822 -[mav_srv] - INFO - {'time': 961031574, 'lat': 0.0, 'lon': 0.0, 'alt': 0.0, 'yaw': 161.6345672607422, 'pitch': -1.4520615339279175, 'roll': 0.6572926640510559, 'speed': 0.0}
2023-03-26 23:46:30,824 -[mav_srv] - INFO - -------GeoTag------------
2023-03-26 23:46:30,824 -[mav_srv] - INFO - {'time': 962031575, 'lat': 0.0, 'lon': 0.0, 'alt': 0.0, 'yaw': 161.6231231689453, 'pitch': -1.4456676244735718, 'roll': 0.6683942079544067, 'speed': 0.0}
2023-03-26 23:46:31,825 -[mav_srv] - INFO - -------GeoTag------------
2023-03-26 23:46:31,825 -[mav_srv] - INFO - {'time': 963031608, 'lat': 0.0, 'lon': 0.0, 'alt': 0.0, 'yaw': 161.64056396484375, 'pitch': -1.4448033571243286, 'roll': 0.6751760840415955, 'speed': 0.0}
2023-03-26 23:46:32,827 -[mav_srv] - INFO - -------GeoTag------------
2023-03-26 23:46:32,828 -[mav_srv] - INFO - {'time': 964031574, 'lat': 0.0, 'lon': 0.0, 'alt': 0.0, 'yaw': 161.64791870117188, 'pitch': -1.4463566541671753, 'roll': 0.6696341633796692, 'speed': 0.0}
2023-03-26 23:46:33,829 -[mav_srv] - INFO - -------GeoTag------------
2023-03-26 23:46:33,830 -[mav_srv] - INFO - {'time': 965031582, 'lat': 0.0, 'lon': 0.0, 'alt': 0.0, 'yaw': 161.67266845703125, 'pitch': -1.449177861213684, 'roll': 0.6660482883453369, 'speed': 0.0}
2023-03-26 23:46:34,858 -[mav_srv] - INFO - -------GeoTag------------
2023-03-26 23:46:34,859 -[mav_srv] - INFO - {'time': 966231620, 'lat': 0.0, 'lon': 0.0, 'alt': 0.0, 'yaw': 161.6777801513672, 'pitch': -1.453897476196289, 'roll': 0.6565378904342651, 'speed': 0.0}
2023-03-26 23:46:35,861 -[mav_srv] - INFO - -------GeoTag------------
2023-03-26 23:46:35,862 -[mav_srv] - INFO - {'time': 967231576, 'lat': 0.0, 'lon': 0.0, 'alt': 0.0, 'yaw': 161.67601013183594, 'pitch': -1.4550520181655884, 'roll': 0.6568751335144043, 'speed': 0.0}
2023-03-26 23:46:36,863 -[mav_srv] - INFO - -------GeoTag------------
2023-03-26 23:46:36,864 -[mav_srv] - INFO - {'time': 968230584, 'lat': 0.0, 'lon': 0.0, 'alt': 0.0, 'yaw': 161.6885528564453, 'pitch': -1.4574666023254395, 'roll': 0.6552969813346863, 'speed': 0.0}
2023-03-26 23:46:37,865 -[mav_srv] - INFO - -------GeoTag------------
2023-03-26 23:46:37,866 -[mav_srv] - INFO - {'time': 969231585, 'lat': 0.0, 'lon': 0.0, 'alt': 0.0, 'yaw': 161.6822052001953, 'pitch': -1.434498906135559, 'roll': 0.7127265334129333, 'speed': 0.0}
2023-03-26 23:46:38,868 -[mav_srv] - INFO - -------GeoTag------------
2023-03-26 23:46:38,868 -[mav_srv] - INFO - {'time': 970230576, 'lat': 0.0, 'lon': 0.0, 'alt': 0.0, 'yaw': 161.6645050048828, 'pitch': -1.4001988172531128, 'roll': 0.7620164752006531, 'speed': 0.0}
2023-03-26 23:46:39,894 -[mav_srv] - INFO - -------GeoTag------------
2023-03-26 23:46:39,895 -[mav_srv] - INFO - {'time': 971230577, 'lat': 0.0, 'lon': 0.0, 'alt': 0.0, 'yaw': 161.66873168945312, 'pitch': -1.4087077379226685, 'roll': 0.7551234364509583, 'speed': 0.0}
2023-03-26 23:46:40,896 -[mav_srv] - INFO - -------GeoTag------------
2023-03-26 23:46:40,897 -[mav_srv] - INFO - {'time': 972231589, 'lat': 0.0, 'lon': 0.0, 'alt': 0.0, 'yaw': 161.64834594726562, 'pitch': -1.4169596433639526, 'roll': 0.7409433126449585, 'speed': 0.0}
2023-03-26 23:46:41,898 -[mav_srv] - INFO - -------GeoTag------------
2023-03-26 23:46:41,898 -[mav_srv] - INFO - {'time': 973233578, 'lat': 0.0, 'lon': 0.0, 'alt': 0.0, 'yaw': 161.64080810546875, 'pitch': -1.4235069751739502, 'roll': 0.7333347797393799, 'speed': 0.0}
2023-03-26 23:46:42,901 -[mav_srv] - INFO - -------GeoTag------------
2023-03-26 23:46:42,901 -[mav_srv] - INFO - {'time': 974231576, 'lat': 0.0, 'lon': 0.0, 'alt': 0.0, 'yaw': 161.6284942626953, 'pitch': -1.420278787612915, 'roll': 0.7357074618339539, 'speed': 0.0}
2023-03-26 23:46:43,903 -[mav_srv] - INFO - -------GeoTag------------
2023-03-26 23:46:43,904 -[mav_srv] - INFO - {'time': 975230583, 'lat': 0.0, 'lon': 0.0, 'alt': 0.0, 'yaw': 161.6284942626953, 'pitch': -1.4262807369232178, 'roll': 0.7349977493286133, 'speed': 0.0}
2023-03-26 23:46:44,924 -[mav_srv] - INFO - -------GeoTag------------
2023-03-26 23:46:44,924 -[mav_srv] - INFO - {'time': 976230576, 'lat': 0.0, 'lon': 0.0, 'alt': 0.0, 'yaw': 161.63711547851562, 'pitch': -1.4241914749145508, 'roll': 0.7379540801048279, 'speed': 0.0}
2023-03-26 23:46:45,926 -[mav_srv] - INFO - -------GeoTag------------
2023-03-26 23:46:45,926 -[mav_srv] - INFO - {'time': 977231576, 'lat': 0.0, 'lon': 0.0, 'alt': 0.0, 'yaw': 161.65158081054688, 'pitch': -1.422869324684143, 'roll': 0.7376748919487, 'speed': 0.0}
2023-03-26 23:46:46,928 -[mav_srv] - INFO - -------GeoTag------------
2023-03-26 23:46:46,928 -[mav_srv] - INFO - {'time': 978230593, 'lat': 0.0, 'lon': 0.0, 'alt': 0.0, 'yaw': 161.65589904785156, 'pitch': -1.426260232925415, 'roll': 0.7330173850059509, 'speed': 0.0}
2023-03-26 23:46:47,931 -[mav_srv] - INFO - -------GeoTag------------
2023-03-26 23:46:47,931 -[mav_srv] - INFO - {'time': 979230576, 'lat': 0.0, 'lon': 0.0, 'alt': 0.0, 'yaw': 161.68907165527344, 'pitch': -1.4249237775802612, 'roll': 0.7327834963798523, 'speed': 0.0}
2023-03-26 23:46:48,933 -[mav_srv] - INFO - -------GeoTag------------
2023-03-26 23:46:48,934 -[mav_srv] - INFO - {'time': 980230936, 'lat': 0.0, 'lon': 0.0, 'alt': 0.0, 'yaw': 161.69546508789062, 'pitch': -1.422927737236023, 'roll': 0.7340937852859497, 'speed': 0.0}
2023-03-26 23:46:49,961 -[mav_srv] - INFO - -------GeoTag------------
2023-03-26 23:46:49,961 -[mav_srv] - INFO - {'time': 981231576, 'lat': 0.0, 'lon': 0.0, 'alt': 0.0, 'yaw': 161.69898986816406, 'pitch': -1.4231756925582886, 'roll': 0.7348313331604004, 'speed': 0.0}
2023-03-26 23:46:50,963 -[mav_srv] - INFO - -------GeoTag------------
2023-03-26 23:46:50,964 -[mav_srv] - INFO - {'time': 982231582, 'lat': 0.0, 'lon': 0.0, 'alt': 0.0, 'yaw': 161.70274353027344, 'pitch': -1.4286832809448242, 'roll': 0.7338436245918274, 'speed': 0.0}
2023-03-26 23:46:51,966 -[mav_srv] - INFO - -------GeoTag------------
2023-03-26 23:46:51,967 -[mav_srv] - INFO - {'time': 983230576, 'lat': 0.0, 'lon': 0.0, 'alt': 0.0, 'yaw': 161.65675354003906, 'pitch': -1.4272513389587402, 'roll': 0.7317228317260742, 'speed': 0.0}
2023-03-26 23:46:52,969 -[mav_srv] - INFO - -------GeoTag------------
2023-03-26 23:46:52,971 -[mav_srv] - INFO - {'time': 984231582, 'lat': 0.0, 'lon': 0.0, 'alt': 0.0, 'yaw': 161.6480255126953, 'pitch': -1.4300873279571533, 'roll': 0.7351123690605164, 'speed': 0.0}
2023-03-26 23:46:53,973 -[mav_srv] - INFO - -------GeoTag------------
2023-03-26 23:46:53,996 -[mav_srv] - INFO - {'time': 985229636, 'lat': 0.0, 'lon': 0.0, 'alt': 0.0, 'yaw': 161.66976928710938, 'pitch': -1.4308234453201294, 'roll': 0.733625590801239, 'speed': 0.0}
2023-03-26 23:46:54,998 -[mav_srv] - INFO - -------GeoTag------------
2023-03-26 23:46:54,998 -[mav_srv] - INFO - {'time': 986229577, 'lat': 0.0, 'lon': 0.0, 'alt': 0.0, 'yaw': 161.66824340820312, 'pitch': -1.4325016736984253, 'roll': 0.7299109697341919, 'speed': 0.0}
2023-03-26 23:46:55,999 -[mav_srv] - INFO - -------GeoTag------------
2023-03-26 23:46:56,005 -[mav_srv] - INFO - {'time': 987230574, 'lat': 0.0, 'lon': 0.0, 'alt': 0.0, 'yaw': 161.67538452148438, 'pitch': -1.4280943870544434, 'roll': 0.7335967421531677, 'speed': 0.0}
2023-03-26 23:46:57,009 -[mav_srv] - INFO - -------GeoTag------------
2023-03-26 23:46:57,009 -[mav_srv] - INFO - {'time': 988230594, 'lat': 0.0, 'lon': 0.0, 'alt': 0.0, 'yaw': 161.65638732910156, 'pitch': -1.4296904802322388, 'roll': 0.7331225872039795, 'speed': 0.0}
2023-03-26 23:46:58,012 -[mav_srv] - INFO - -------GeoTag------------
2023-03-26 23:46:58,013 -[mav_srv] - INFO - {'time': 989229590, 'lat': 0.0, 'lon': 0.0, 'alt': 0.0, 'yaw': 161.65008544921875, 'pitch': -1.4298181533813477, 'roll': 0.733061671257019, 'speed': 0.0}
2023-03-26 23:46:59,016 -[mav_srv] - INFO - -------GeoTag------------
2023-03-26 23:46:59,017 -[mav_srv] - INFO - {'time': 990229576, 'lat': 0.0, 'lon': 0.0, 'alt': 0.0, 'yaw': 161.6686248779297, 'pitch': -1.4278932809829712, 'roll': 0.729363739490509, 'speed': 0.0}
2023-03-26 23:47:00,019 -[mav_srv] - INFO - -------GeoTag------------
2023-03-26 23:47:00,019 -[mav_srv] - INFO - {'time': 991229578, 'lat': 0.0, 'lon': 0.0, 'alt': 0.0, 'yaw': 161.66778564453125, 'pitch': -1.4274499416351318, 'roll': 0.7268617153167725, 'speed': 0.0}
2023-03-26 23:47:01,023 -[mav_srv] - INFO - -------GeoTag------------
2023-03-26 23:47:01,023 -[mav_srv] - INFO - {'time': 992229576, 'lat': 0.0, 'lon': 0.0, 'alt': 0.0, 'yaw': 161.6653289794922, 'pitch': -1.4222835302352905, 'roll': 0.7282119393348694, 'speed': 0.0}
2023-03-26 23:47:02,035 -[mav_srv] - INFO - -------GeoTag------------
2023-03-26 23:47:02,036 -[mav_srv] - INFO - {'time': 993428891, 'lat': 0.0, 'lon': 0.0, 'alt': 0.0, 'yaw': 161.6670379638672, 'pitch': -1.4240413904190063, 'roll': 0.73052579164505, 'speed': 0.0}
2023-03-26 23:47:03,037 -[mav_srv] - INFO - -------GeoTag------------
2023-03-26 23:47:03,037 -[mav_srv] - INFO - {'time': 994428576, 'lat': 0.0, 'lon': 0.0, 'alt': 0.0, 'yaw': 161.65396118164062, 'pitch': -1.4258577823638916, 'roll': 0.7275806069374084, 'speed': 0.0}
2023-03-26 23:47:04,039 -[mav_srv] - INFO - -------GeoTag------------
2023-03-26 23:47:04,039 -[mav_srv] - INFO - {'time': 995228764, 'lat': 0.0, 'lon': 0.0, 'alt': 0.0, 'yaw': 161.68899536132812, 'pitch': -1.421730399131775, 'roll': 0.7298654317855835, 'speed': 0.0}
2023-03-26 23:47:05,042 -[mav_srv] - INFO - -------GeoTag------------
2023-03-26 23:47:05,043 -[mav_srv] - INFO - {'time': 996428576, 'lat': 0.0, 'lon': 0.0, 'alt': 0.0, 'yaw': 161.68780517578125, 'pitch': -1.4225186109542847, 'roll': 0.731228768825531, 'speed': 0.0}
2023-03-26 23:47:06,045 -[mav_srv] - INFO - -------GeoTag------------
2023-03-26 23:47:06,045 -[mav_srv] - INFO - {'time': 997428576, 'lat': 0.0, 'lon': 0.0, 'alt': 0.0, 'yaw': 161.6862030029297, 'pitch': -1.422275185585022, 'roll': 0.7327176928520203, 'speed': 0.0}
2023-03-26 23:47:07,048 -[mav_srv] - INFO - -------GeoTag------------
2023-03-26 23:47:07,048 -[mav_srv] - INFO - {'time': 998428583, 'lat': 0.0, 'lon': 0.0, 'alt': 0.0, 'yaw': 161.67819213867188, 'pitch': -1.4265117645263672, 'roll': 0.7288545966148376, 'speed': 0.0}
2023-03-26 23:47:08,050 -[mav_srv] - INFO - -------GeoTag------------
2023-03-26 23:47:08,051 -[mav_srv] - INFO - {'time': 999428582, 'lat': 0.0, 'lon': 0.0, 'alt': 0.0, 'yaw': 161.67149353027344, 'pitch': -1.4236665964126587, 'roll': 0.7288925051689148, 'speed': 0.0}
2023-03-26 23:47:09,053 -[mav_srv] - INFO - -------GeoTag------------
2023-03-26 23:47:09,053 -[mav_srv] - INFO - {'time': 1000429583, 'lat': 0.0, 'lon': 0.0, 'alt': 0.0, 'yaw': 161.67437744140625, 'pitch': -1.4185370206832886, 'roll': 0.7283406257629395, 'speed': 0.0}
2023-03-26 23:47:10,057 -[mav_srv] - INFO - -------GeoTag------------
2023-03-26 23:47:10,057 -[mav_srv] - INFO - {'time': 1001429576, 'lat': 0.0, 'lon': 0.0, 'alt': 0.0, 'yaw': 161.673828125, 'pitch': -1.423966884613037, 'roll': 0.7258048057556152, 'speed': 0.0}
2023-03-26 23:47:11,060 -[mav_srv] - INFO - -------GeoTag------------
2023-03-26 23:47:11,060 -[mav_srv] - INFO - {'time': 1002430578, 'lat': 0.0, 'lon': 0.0, 'alt': 0.0, 'yaw': 161.6545867919922, 'pitch': -1.4235204458236694, 'roll': 0.7350986003875732, 'speed': 0.0}
2023-03-26 23:47:12,066 -[mav_srv] - INFO - -------GeoTag------------
2023-03-26 23:47:12,066 -[mav_srv] - INFO - {'time': 1003429576, 'lat': 0.0, 'lon': 0.0, 'alt': 0.0, 'yaw': 161.69442749023438, 'pitch': -1.4275023937225342, 'roll': 0.73537278175354, 'speed': 0.0}
2023-03-26 23:47:13,068 -[mav_srv] - INFO - -------GeoTag------------
2023-03-26 23:47:13,068 -[mav_srv] - INFO - {'time': 1004428577, 'lat': 0.0, 'lon': 0.0, 'alt': 0.0, 'yaw': 161.7112579345703, 'pitch': -1.4280314445495605, 'roll': 0.7408936023712158, 'speed': 0.0}
2023-03-26 23:47:14,070 -[mav_srv] - INFO - -------GeoTag------------
2023-03-26 23:47:14,071 -[mav_srv] - INFO - {'time': 1005428582, 'lat': 0.0, 'lon': 0.0, 'alt': 0.0, 'yaw': 161.7166290283203, 'pitch': -1.4226549863815308, 'roll': 0.7397342324256897, 'speed': 0.0}
2023-03-26 23:47:15,074 -[mav_srv] - INFO - -------GeoTag------------
2023-03-26 23:47:15,074 -[mav_srv] - INFO - {'time': 1006428576, 'lat': 0.0, 'lon': 0.0, 'alt': 0.0, 'yaw': 161.73426818847656, 'pitch': -1.4251148700714111, 'roll': 0.7386849522590637, 'speed': 0.0}
2023-03-26 23:47:16,077 -[mav_srv] - INFO - -------GeoTag------------
2023-03-26 23:47:16,078 -[mav_srv] - INFO - {'time': 1007428661, 'lat': 0.0, 'lon': 0.0, 'alt': 0.0, 'yaw': 161.73480224609375, 'pitch': -1.421653151512146, 'roll': 0.7419275641441345, 'speed': 0.0}
2023-03-26 23:47:17,080 -[mav_srv] - INFO - -------GeoTag------------
2023-03-26 23:47:17,080 -[mav_srv] - INFO - {'time': 1008428576, 'lat': 0.0, 'lon': 0.0, 'alt': 0.0, 'yaw': 161.74720764160156, 'pitch': -1.4274128675460815, 'roll': 0.741048276424408, 'speed': 0.0}
2023-03-26 23:47:18,083 -[mav_srv] - INFO - -------GeoTag------------
2023-03-26 23:47:18,084 -[mav_srv] - INFO - {'time': 1009428575, 'lat': 0.0, 'lon': 0.0, 'alt': 0.0, 'yaw': 161.77784729003906, 'pitch': -1.4302765130996704, 'roll': 0.7415322661399841, 'speed': 0.0}
2023-03-26 23:47:19,088 -[mav_srv] - INFO - -------GeoTag------------
2023-03-26 23:47:19,090 -[mav_srv] - INFO - {'time': 1010428578, 'lat': 0.0, 'lon': 0.0, 'alt': 0.0, 'yaw': 161.7859649658203, 'pitch': -1.4258766174316406, 'roll': 0.7393642067909241, 'speed': 0.0}
2023-03-26 23:47:20,092 -[mav_srv] - INFO - -------GeoTag------------
2023-03-26 23:47:20,092 -[mav_srv] - INFO - {'time': 1011428749, 'lat': 0.0, 'lon': 0.0, 'alt': 0.0, 'yaw': 161.80714416503906, 'pitch': -1.4279513359069824, 'roll': 0.734030544757843, 'speed': 0.0}
2023-03-26 23:47:21,094 -[mav_srv] - INFO - -------GeoTag------------
2023-03-26 23:47:21,094 -[mav_srv] - INFO - {'time': 1012428581, 'lat': 0.0, 'lon': 0.0, 'alt': 0.0, 'yaw': 161.8314208984375, 'pitch': -1.4333285093307495, 'roll': 0.7317550182342529, 'speed': 0.0}
2023-03-26 23:47:22,097 -[mav_srv] - INFO - -------GeoTag------------
2023-03-26 23:47:22,098 -[mav_srv] - INFO - {'time': 1013430167, 'lat': 0.0, 'lon': 0.0, 'alt': 0.0, 'yaw': 161.79917907714844, 'pitch': -1.4270150661468506, 'roll': 0.7317290902137756, 'speed': 0.0}
2023-03-26 23:47:23,100 -[mav_srv] - INFO - -------GeoTag------------
2023-03-26 23:47:23,100 -[mav_srv] - INFO - {'time': 1014429576, 'lat': 0.0, 'lon': 0.0, 'alt': 0.0, 'yaw': 161.83486938476562, 'pitch': -1.4250932931900024, 'roll': 0.7349420189857483, 'speed': 0.0}
2023-03-26 23:47:24,105 -[mav_srv] - INFO - -------GeoTag------------
2023-03-26 23:47:24,106 -[mav_srv] - INFO - {'time': 1015429576, 'lat': 0.0, 'lon': 0.0, 'alt': 0.0, 'yaw': 161.8498077392578, 'pitch': -1.4236972332000732, 'roll': 0.7328832149505615, 'speed': 0.0}
2023-03-26 23:47:25,114 -[mav_srv] - INFO - -------GeoTag------------
2023-03-26 23:47:25,114 -[mav_srv] - INFO - {'time': 1016428626, 'lat': 0.0, 'lon': 0.0, 'alt': 0.0, 'yaw': 161.8500213623047, 'pitch': -1.4252703189849854, 'roll': 0.7342352867126465, 'speed': 0.0}
2023-03-26 23:47:26,115 -[mav_srv] - INFO - -------GeoTag------------
2023-03-26 23:47:26,115 -[mav_srv] - INFO - {'time': 1017428577, 'lat': 0.0, 'lon': 0.0, 'alt': 0.0, 'yaw': 161.84686279296875, 'pitch': -1.4239795207977295, 'roll': 0.7362840175628662, 'speed': 0.0}
2023-03-26 23:47:27,117 -[mav_srv] - INFO - -------GeoTag------------
2023-03-26 23:47:27,118 -[mav_srv] - INFO - {'time': 1018428589, 'lat': 0.0, 'lon': 0.0, 'alt': 0.0, 'yaw': 161.84146118164062, 'pitch': -1.4216464757919312, 'roll': 0.7394623756408691, 'speed': 0.0}
2023-03-26 23:47:28,119 -[mav_srv] - INFO - -------GeoTag------------
2023-03-26 23:47:28,120 -[mav_srv] - INFO - {'time': 1019428583, 'lat': 0.0, 'lon': 0.0, 'alt': 0.0, 'yaw': 161.85581970214844, 'pitch': -1.4128971099853516, 'roll': 0.7377750873565674, 'speed': 0.0}
2023-03-26 23:47:29,121 -[mav_srv] - INFO - -------GeoTag------------
2023-03-26 23:47:29,128 -[mav_srv] - INFO - {'time': 1020429584, 'lat': 0.0, 'lon': 0.0, 'alt': 0.0, 'yaw': 161.86300659179688, 'pitch': -1.414923071861267, 'roll': 0.7356099486351013, 'speed': 0.0}
2023-03-26 23:47:30,129 -[mav_srv] - INFO - -------GeoTag------------
