2023-03-26 23:31:18,144 -[mav_srv] - INFO - {'time': 49464593, 'lat': 0.0, 'lon': 0.0, 'alt': 0.0, 'yaw': 159.83074951171875, 'pitch': -1.6528024673461914, 'roll': 0.8276163339614868, 'speed': 0.0}
2023-03-26 23:31:19,148 -[mav_srv] - INFO - -------GeoTag------------
2023-03-26 23:31:19,149 -[mav_srv] - INFO - {'time': 50464601, 'lat': 0.0, 'lon': 0.0, 'alt': 0.0, 'yaw': 159.81320190429688, 'pitch': -1.6462790966033936, 'roll': 0.8239347338676453, 'speed': 0.0}
2023-03-26 23:31:20,150 -[mav_srv] - INFO - -------GeoTag------------
2023-03-26 23:31:20,155 -[mav_srv] - INFO - {'time': 51465576, 'lat': 0.0, 'lon': 0.0, 'alt': 0.0, 'yaw': 159.83453369140625, 'pitch': -1.6483123302459717, 'roll': 0.813426673412323, 'speed': 0.0}
2023-03-26 23:31:21,157 -[mav_srv] - INFO - -------GeoTag------------
2023-03-26 23:31:21,158 -[mav_srv] - INFO - {'time': 52466622, 'lat': 0.0, 'lon': 0.0, 'alt': 0.0, 'yaw': 159.8428955078125, 'pitch': -1.6539090871810913, 'roll': 0.7877418398857117, 'speed': 0.0}
2023-03-26 23:31:22,159 -[mav_srv] - INFO - -------GeoTag------------
2023-03-26 23:31:22,159 -[mav_srv] - INFO - {'time': 53464575, 'lat': 0.0, 'lon': 0.0, 'alt': 0.0, 'yaw': 159.88792419433594, 'pitch': -1.6487481594085693, 'roll': 0.7730163931846619, 'speed': 0.0}
2023-03-26 23:31:23,161 -[mav_srv] - INFO - -------GeoTag------------
2023-03-26 23:31:23,161 -[mav_srv] - INFO - {'time': 54465576, 'lat': 0.0, 'lon': 0.0, 'alt': 0.0, 'yaw': 159.93875122070312, 'pitch': -1.6524163484573364, 'roll': 0.7597313523292542, 'speed': 0.0}
2023-03-26 23:31:24,163 -[mav_srv] - INFO - -------GeoTag------------
2023-03-26 23:31:24,163 -[mav_srv] - INFO - {'time': 55464594, 'lat': 0.0, 'lon': 0.0, 'alt': 0.0, 'yaw': 159.97946166992188, 'pitch': -1.6469662189483643, 'roll': 0.7555387616157532, 'speed': 0.0}
2023-03-26 23:31:25,165 -[mav_srv] - INFO - -------GeoTag------------
2023-03-26 23:31:25,166 -[mav_srv] - INFO - {'time': 56466611, 'lat': 0.0, 'lon': 0.0, 'alt': 0.0, 'yaw': 160.0521697998047, 'pitch': -1.6338084936141968, 'roll': 0.7507913708686829, 'speed': 0.0}
2023-03-26 23:31:26,168 -[mav_srv] - INFO - -------GeoTag------------
2023-03-26 23:31:26,169 -[mav_srv] - INFO - {'time': 57464577, 'lat': 0.0, 'lon': 0.0, 'alt': 0.0, 'yaw': 160.09263610839844, 'pitch': -1.6363329887390137, 'roll': 0.7415986657142639, 'speed': 0.0}
2023-03-26 23:31:27,171 -[mav_srv] - INFO - -------GeoTag------------
2023-03-26 23:31:27,171 -[mav_srv] - INFO - {'time': 58464836, 'lat': 0.0, 'lon': 0.0, 'alt': 0.0, 'yaw': 160.11782836914062, 'pitch': -1.6242650747299194, 'roll': 0.735787570476532, 'speed': 0.0}
2023-03-26 23:31:28,173 -[mav_srv] - INFO - -------GeoTag------------
2023-03-26 23:31:28,174 -[mav_srv] - INFO - {'time': 59465576, 'lat': 0.0, 'lon': 0.0, 'alt': 0.0, 'yaw': 160.16561889648438, 'pitch': -1.6173032522201538, 'roll': 0.7489405274391174, 'speed': 0.0}
2023-03-26 23:31:29,176 -[mav_srv] - INFO - -------GeoTag------------
2023-03-26 23:31:29,176 -[mav_srv] - INFO - {'time': 60464577, 'lat': 0.0, 'lon': 0.0, 'alt': 0.0, 'yaw': 160.18028259277344, 'pitch': -1.6093080043792725, 'roll': 0.7398564219474792, 'speed': 0.0}
2023-03-26 23:31:30,178 -[mav_srv] - INFO - -------GeoTag------------
2023-03-26 23:31:30,178 -[mav_srv] - INFO - {'time': 61464582, 'lat': 0.0, 'lon': 0.0, 'alt': 0.0, 'yaw': 160.22528076171875, 'pitch': -1.5738955736160278, 'roll': 0.7945389747619629, 'speed': 0.0}
2023-03-26 23:31:31,186 -[mav_srv] - INFO - -------GeoTag------------
2023-03-26 23:31:31,186 -[mav_srv] - INFO - {'time': 62464582, 'lat': 0.0, 'lon': 0.0, 'alt': 0.0, 'yaw': 160.27748107910156, 'pitch': -1.5699971914291382, 'roll': 0.7970955967903137, 'speed': 0.0}
2023-03-26 23:31:32,187 -[mav_srv] - INFO - -------GeoTag------------
2023-03-26 23:31:32,188 -[mav_srv] - INFO - {'time': 63465579, 'lat': 0.0, 'lon': 0.0, 'alt': 0.0, 'yaw': 160.3189697265625, 'pitch': -1.5677281618118286, 'roll': 0.798872709274292, 'speed': 0.0}
2023-03-26 23:31:33,189 -[mav_srv] - INFO - -------GeoTag------------
2023-03-26 23:31:33,189 -[mav_srv] - INFO - {'time': 64465576, 'lat': 0.0, 'lon': 0.0, 'alt': 0.0, 'yaw': 160.37574768066406, 'pitch': -1.5652973651885986, 'roll': 0.8003162145614624, 'speed': 0.0}
2023-03-26 23:31:34,191 -[mav_srv] - INFO - -------GeoTag------------
2023-03-26 23:31:34,192 -[mav_srv] - INFO - {'time': 65465574, 'lat': 0.0, 'lon': 0.0, 'alt': 0.0, 'yaw': 160.42027282714844, 'pitch': -1.561771273612976, 'roll': 0.7999371886253357, 'speed': 0.0}
2023-03-26 23:31:35,193 -[mav_srv] - INFO - -------GeoTag------------
2023-03-26 23:31:35,194 -[mav_srv] - INFO - {'time': 66465671, 'lat': 0.0, 'lon': 0.0, 'alt': 0.0, 'yaw': 160.46652221679688, 'pitch': -1.5701500177383423, 'roll': 0.7810755372047424, 'speed': 0.0}
2023-03-26 23:31:36,201 -[mav_srv] - INFO - -------GeoTag------------
2023-03-26 23:31:36,202 -[mav_srv] - INFO - {'time': 67465630, 'lat': 0.0, 'lon': 0.0, 'alt': 0.0, 'yaw': 160.52218627929688, 'pitch': -1.5794597864151, 'roll': 0.7504196166992188, 'speed': 0.0}
2023-03-26 23:31:37,203 -[mav_srv] - INFO - -------GeoTag------------
2023-03-26 23:31:37,204 -[mav_srv] - INFO - {'time': 68465575, 'lat': 0.0, 'lon': 0.0, 'alt': 0.0, 'yaw': 160.5244903564453, 'pitch': -1.5761160850524902, 'roll': 0.7420858144760132, 'speed': 0.0}
2023-03-26 23:31:38,205 -[mav_srv] - INFO - -------GeoTag------------
2023-03-26 23:31:38,205 -[mav_srv] - INFO - {'time': 69465583, 'lat': 0.0, 'lon': 0.0, 'alt': 0.0, 'yaw': 160.57069396972656, 'pitch': -1.5765845775604248, 'roll': 0.740973711013794, 'speed': 0.0}
2023-03-26 23:31:39,206 -[mav_srv] - INFO - -------GeoTag------------
2023-03-26 23:31:39,207 -[mav_srv] - INFO - {'time': 70465576, 'lat': 0.0, 'lon': 0.0, 'alt': 0.0, 'yaw': 160.59451293945312, 'pitch': -1.575272560119629, 'roll': 0.7370642423629761, 'speed': 0.0}
2023-03-26 23:31:40,208 -[mav_srv] - INFO - -------GeoTag------------
2023-03-26 23:31:40,208 -[mav_srv] - INFO - {'time': 71467583, 'lat': 0.0, 'lon': 0.0, 'alt': 0.0, 'yaw': 160.64566040039062, 'pitch': -1.5582339763641357, 'roll': 0.7390763759613037, 'speed': 0.0}
2023-03-26 23:31:41,214 -[mav_srv] - INFO - -------GeoTag------------
2023-03-26 23:31:41,214 -[mav_srv] - INFO - {'time': 72465575, 'lat': 0.0, 'lon': 0.0, 'alt': 0.0, 'yaw': 160.65203857421875, 'pitch': -1.56078040599823, 'roll': 0.7321142554283142, 'speed': 0.0}
2023-03-26 23:31:42,215 -[mav_srv] - INFO - -------GeoTag------------
2023-03-26 23:31:42,216 -[mav_srv] - INFO - {'time': 73465582, 'lat': 0.0, 'lon': 0.0, 'alt': 0.0, 'yaw': 160.67794799804688, 'pitch': -1.553534746170044, 'roll': 0.7358255386352539, 'speed': 0.0}
2023-03-26 23:31:43,217 -[mav_srv] - INFO - -------GeoTag------------
2023-03-26 23:31:43,218 -[mav_srv] - INFO - {'time': 74464577, 'lat': 0.0, 'lon': 0.0, 'alt': 0.0, 'yaw': 160.68466186523438, 'pitch': -1.5573240518569946, 'roll': 0.7304062843322754, 'speed': 0.0}
2023-03-26 23:31:44,219 -[mav_srv] - INFO - -------GeoTag------------
2023-03-26 23:31:44,219 -[mav_srv] - INFO - {'time': 75465576, 'lat': 0.0, 'lon': 0.0, 'alt': 0.0, 'yaw': 160.6886444091797, 'pitch': -1.527465581893921, 'roll': 0.7702620625495911, 'speed': 0.0}
2023-03-26 23:31:45,220 -[mav_srv] - INFO - -------GeoTag------------
2023-03-26 23:31:45,220 -[mav_srv] - INFO - {'time': 76465581, 'lat': 0.0, 'lon': 0.0, 'alt': 0.0, 'yaw': 160.73802185058594, 'pitch': -1.528223991394043, 'roll': 0.769072413444519, 'speed': 0.0}
2023-03-26 23:31:46,227 -[mav_srv] - INFO - -------GeoTag------------
2023-03-26 23:31:46,228 -[mav_srv] - INFO - {'time': 77664847, 'lat': 0.0, 'lon': 0.0, 'alt': 0.0, 'yaw': 160.77305603027344, 'pitch': -1.5235073566436768, 'roll': 0.7692424058914185, 'speed': 0.0}
2023-03-26 23:31:47,230 -[mav_srv] - INFO - -------GeoTag------------
2023-03-26 23:31:47,231 -[mav_srv] - INFO - {'time': 78664576, 'lat': 0.0, 'lon': 0.0, 'alt': 0.0, 'yaw': 160.80282592773438, 'pitch': -1.5228995084762573, 'roll': 0.7676400542259216, 'speed': 0.0}
2023-03-26 23:31:48,233 -[mav_srv] - INFO - -------GeoTag------------
2023-03-26 23:31:48,233 -[mav_srv] - INFO - {'time': 79664582, 'lat': 0.0, 'lon': 0.0, 'alt': 0.0, 'yaw': 160.8512420654297, 'pitch': -1.5318232774734497, 'roll': 0.7213363647460938, 'speed': 0.0}
2023-03-26 23:31:49,235 -[mav_srv] - INFO - -------GeoTag------------
2023-03-26 23:31:49,235 -[mav_srv] - INFO - {'time': 80663576, 'lat': 0.0, 'lon': 0.0, 'alt': 0.0, 'yaw': 160.86216735839844, 'pitch': -1.5538166761398315, 'roll': 0.6995389461517334, 'speed': 0.0}
2023-03-26 23:31:50,237 -[mav_srv] - INFO - -------GeoTag------------
2023-03-26 23:31:50,237 -[mav_srv] - INFO - {'time': 81663777, 'lat': 0.0, 'lon': 0.0, 'alt': 0.0, 'yaw': 160.8744354248047, 'pitch': -1.5491617918014526, 'roll': 0.6927639842033386, 'speed': 0.0}
2023-03-26 23:31:51,245 -[mav_srv] - INFO - -------GeoTag------------
2023-03-26 23:31:51,247 -[mav_srv] - INFO - {'time': 82664576, 'lat': 0.0, 'lon': 0.0, 'alt': 0.0, 'yaw': 160.89732360839844, 'pitch': -1.5510228872299194, 'roll': 0.6916342377662659, 'speed': 0.0}
2023-03-26 23:31:52,248 -[mav_srv] - INFO - -------GeoTag------------
2023-03-26 23:31:52,250 -[mav_srv] - INFO - {'time': 83663576, 'lat': 0.0, 'lon': 0.0, 'alt': 0.0, 'yaw': 160.91259765625, 'pitch': -1.546817421913147, 'roll': 0.6908987164497375, 'speed': 0.0}
2023-03-26 23:31:53,251 -[mav_srv] - INFO - -------GeoTag------------
2023-03-26 23:31:53,251 -[mav_srv] - INFO - {'time': 84663578, 'lat': 0.0, 'lon': 0.0, 'alt': 0.0, 'yaw': 160.94578552246094, 'pitch': -1.5392438173294067, 'roll': 0.696193516254425, 'speed': 0.0}
2023-03-26 23:31:54,253 -[mav_srv] - INFO - -------GeoTag------------
2023-03-26 23:31:54,254 -[mav_srv] - INFO - {'time': 85663584, 'lat': 0.0, 'lon': 0.0, 'alt': 0.0, 'yaw': 160.94789123535156, 'pitch': -1.541831612586975, 'roll': 0.685142457485199, 'speed': 0.0}
2023-03-26 23:31:55,257 -[mav_srv] - INFO - -------GeoTag------------
2023-03-26 23:31:55,257 -[mav_srv] - INFO - {'time': 86663584, 'lat': 0.0, 'lon': 0.0, 'alt': 0.0, 'yaw': 160.9398193359375, 'pitch': -1.5049687623977661, 'roll': 0.7533873915672302, 'speed': 0.0}
2023-03-26 23:31:56,260 -[mav_srv] - INFO - -------GeoTag------------
2023-03-26 23:31:56,260 -[mav_srv] - INFO - {'time': 87663576, 'lat': 0.0, 'lon': 0.0, 'alt': 0.0, 'yaw': 160.98435974121094, 'pitch': -1.5069607496261597, 'roll': 0.7547494769096375, 'speed': 0.0}
2023-03-26 23:31:57,262 -[mav_srv] - INFO - -------GeoTag------------
2023-03-26 23:31:57,262 -[mav_srv] - INFO - {'time': 88662579, 'lat': 0.0, 'lon': 0.0, 'alt': 0.0, 'yaw': 161.00582885742188, 'pitch': -1.5078485012054443, 'roll': 0.7569950819015503, 'speed': 0.0}
2023-03-26 23:31:58,264 -[mav_srv] - INFO - -------GeoTag------------
2023-03-26 23:31:58,264 -[mav_srv] - INFO - {'time': 89664870, 'lat': 0.0, 'lon': 0.0, 'alt': 0.0, 'yaw': 161.04513549804688, 'pitch': -1.5046614408493042, 'roll': 0.7564066648483276, 'speed': 0.0}
2023-03-26 23:31:59,266 -[mav_srv] - INFO - -------GeoTag------------
2023-03-26 23:31:59,266 -[mav_srv] - INFO - {'time': 90664575, 'lat': 0.0, 'lon': 0.0, 'alt': 0.0, 'yaw': 161.07904052734375, 'pitch': -1.505635380744934, 'roll': 0.7518740892410278, 'speed': 0.0}
2023-03-26 23:32:00,275 -[mav_srv] - INFO - -------GeoTag------------
2023-03-26 23:32:00,276 -[mav_srv] - INFO - {'time': 91663576, 'lat': 0.0, 'lon': 0.0, 'alt': 0.0, 'yaw': 161.09580993652344, 'pitch': -1.5003689527511597, 'roll': 0.7513341903686523, 'speed': 0.0}
2023-03-26 23:32:01,278 -[mav_srv] - INFO - -------GeoTag------------
2023-03-26 23:32:01,279 -[mav_srv] - INFO - {'time': 92663583, 'lat': 0.0, 'lon': 0.0, 'alt': 0.0, 'yaw': 161.14312744140625, 'pitch': -1.5030834674835205, 'roll': 0.7531445026397705, 'speed': 0.0}
2023-03-26 23:32:02,280 -[mav_srv] - INFO - -------GeoTag------------
2023-03-26 23:32:02,280 -[mav_srv] - INFO - {'time': 93664581, 'lat': 0.0, 'lon': 0.0, 'alt': 0.0, 'yaw': 161.1559600830078, 'pitch': -1.4966301918029785, 'roll': 0.7574742436408997, 'speed': 0.0}
2023-03-26 23:32:03,282 -[mav_srv] - INFO - -------GeoTag------------
2023-03-26 23:32:03,282 -[mav_srv] - INFO - {'time': 94664575, 'lat': 0.0, 'lon': 0.0, 'alt': 0.0, 'yaw': 161.2031707763672, 'pitch': -1.533595323562622, 'roll': 0.6576055884361267, 'speed': 0.0}
2023-03-26 23:32:04,283 -[mav_srv] - INFO - -------GeoTag------------
2023-03-26 23:32:04,284 -[mav_srv] - INFO - {'time': 95663581, 'lat': 0.0, 'lon': 0.0, 'alt': 0.0, 'yaw': 161.1915740966797, 'pitch': -1.5329664945602417, 'roll': 0.6616136431694031, 'speed': 0.0}
2023-03-26 23:32:05,287 -[mav_srv] - INFO - -------GeoTag------------
2023-03-26 23:32:05,288 -[mav_srv] - INFO - {'time': 96664598, 'lat': 0.0, 'lon': 0.0, 'alt': 0.0, 'yaw': 161.1959228515625, 'pitch': -1.5356037616729736, 'roll': 0.655536413192749, 'speed': 0.0}
2023-03-26 23:32:06,289 -[mav_srv] - INFO - -------GeoTag------------
2023-03-26 23:32:06,290 -[mav_srv] - INFO - {'time': 97664575, 'lat': 0.0, 'lon': 0.0, 'alt': 0.0, 'yaw': 161.19955444335938, 'pitch': -1.5316717624664307, 'roll': 0.6543457508087158, 'speed': 0.0}
2023-03-26 23:32:07,291 -[mav_srv] - INFO - -------GeoTag------------
2023-03-26 23:32:07,291 -[mav_srv] - INFO - {'time': 98663575, 'lat': 0.0, 'lon': 0.0, 'alt': 0.0, 'yaw': 161.221435546875, 'pitch': -1.5296071767807007, 'roll': 0.652162492275238, 'speed': 0.0}
2023-03-26 23:32:08,293 -[mav_srv] - INFO - -------GeoTag------------
2023-03-26 23:32:08,293 -[mav_srv] - INFO - {'time': 99662576, 'lat': 0.0, 'lon': 0.0, 'alt': 0.0, 'yaw': 161.22402954101562, 'pitch': -1.5313539505004883, 'roll': 0.6521064043045044, 'speed': 0.0}
2023-03-26 23:32:09,294 -[mav_srv] - INFO - -------GeoTag------------
2023-03-26 23:32:09,294 -[mav_srv] - INFO - {'time': 100662576, 'lat': 0.0, 'lon': 0.0, 'alt': 0.0, 'yaw': 161.2549591064453, 'pitch': -1.5431870222091675, 'roll': 0.6387560963630676, 'speed': 0.0}
2023-03-26 23:32:10,296 -[mav_srv] - INFO - -------GeoTag------------
2023-03-26 23:32:10,298 -[mav_srv] - INFO - {'time': 101664582, 'lat': 0.0, 'lon': 0.0, 'alt': 0.0, 'yaw': 161.25387573242188, 'pitch': -1.519014596939087, 'roll': 0.6948005557060242, 'speed': 0.0}
2023-03-26 23:32:11,300 -[mav_srv] - INFO - -------GeoTag------------
2023-03-26 23:32:11,300 -[mav_srv] - INFO - {'time': 102662583, 'lat': 0.0, 'lon': 0.0, 'alt': 0.0, 'yaw': 161.26614379882812, 'pitch': -1.5278154611587524, 'roll': 0.6813438534736633, 'speed': 0.0}
2023-03-26 23:32:12,302 -[mav_srv] - INFO - -------GeoTag------------
2023-03-26 23:32:12,302 -[mav_srv] - INFO - {'time': 103663576, 'lat': 0.0, 'lon': 0.0, 'alt': 0.0, 'yaw': 161.30154418945312, 'pitch': -1.5264325141906738, 'roll': 0.684476375579834, 'speed': 0.0}
2023-03-26 23:32:13,306 -[mav_srv] - INFO - -------GeoTag------------
2023-03-26 23:32:13,307 -[mav_srv] - INFO - {'time': 104462577, 'lat': 0.0, 'lon': 0.0, 'alt': 0.0, 'yaw': 161.29776000976562, 'pitch': -1.5259472131729126, 'roll': 0.6837482452392578, 'speed': 0.0}
2023-03-26 23:32:14,309 -[mav_srv] - INFO - -------GeoTag------------
2023-03-26 23:32:14,310 -[mav_srv] - INFO - {'time': 105663629, 'lat': 0.0, 'lon': 0.0, 'alt': 0.0, 'yaw': 161.33157348632812, 'pitch': -1.527120590209961, 'roll': 0.6870812177658081, 'speed': 0.0}
2023-03-26 23:32:15,312 -[mav_srv] - INFO - -------GeoTag------------
2023-03-26 23:32:15,313 -[mav_srv] - INFO - {'time': 106662576, 'lat': 0.0, 'lon': 0.0, 'alt': 0.0, 'yaw': 161.3341064453125, 'pitch': -1.525223731994629, 'roll': 0.6847933530807495, 'speed': 0.0}
2023-03-26 23:32:16,314 -[mav_srv] - INFO - -------GeoTag------------
2023-03-26 23:32:16,314 -[mav_srv] - INFO - {'time': 107662576, 'lat': 0.0, 'lon': 0.0, 'alt': 0.0, 'yaw': 161.36163330078125, 'pitch': -1.5261813402175903, 'roll': 0.6842336654663086, 'speed': 0.0}
2023-03-26 23:32:17,316 -[mav_srv] - INFO - -------GeoTag------------
2023-03-26 23:32:17,316 -[mav_srv] - INFO - {'time': 108662575, 'lat': 0.0, 'lon': 0.0, 'alt': 0.0, 'yaw': 161.37205505371094, 'pitch': -1.5251833200454712, 'roll': 0.6870142817497253, 'speed': 0.0}
2023-03-26 23:32:18,318 -[mav_srv] - INFO - -------GeoTag------------
2023-03-26 23:32:18,318 -[mav_srv] - INFO - {'time': 109662966, 'lat': 0.0, 'lon': 0.0, 'alt': 0.0, 'yaw': 161.39041137695312, 'pitch': -1.4993659257888794, 'roll': 0.7252255082130432, 'speed': 0.0}
2023-03-26 23:32:19,319 -[mav_srv] - INFO - -------GeoTag------------
2023-03-26 23:32:19,319 -[mav_srv] - INFO - {'time': 110662575, 'lat': 0.0, 'lon': 0.0, 'alt': 0.0, 'yaw': 161.4079132080078, 'pitch': -1.4993990659713745, 'roll': 0.7308642864227295, 'speed': 0.0}
2023-03-26 23:32:20,321 -[mav_srv] - INFO - -------GeoTag------------
2023-03-26 23:32:20,321 -[mav_srv] - INFO - {'time': 111662576, 'lat': 0.0, 'lon': 0.0, 'alt': 0.0, 'yaw': 161.44456481933594, 'pitch': -1.5194311141967773, 'roll': 0.6930556297302246, 'speed': 0.0}
2023-03-26 23:32:21,323 -[mav_srv] - INFO - -------GeoTag------------
2023-03-26 23:32:21,323 -[mav_srv] - INFO - {'time': 112662580, 'lat': 0.0, 'lon': 0.0, 'alt': 0.0, 'yaw': 161.44955444335938, 'pitch': -1.5196939706802368, 'roll': 0.6915801763534546, 'speed': 0.0}
2023-03-26 23:32:22,324 -[mav_srv] - INFO - -------GeoTag------------
2023-03-26 23:32:22,325 -[mav_srv] - INFO - {'time': 113663585, 'lat': 0.0, 'lon': 0.0, 'alt': 0.0, 'yaw': 161.44325256347656, 'pitch': -1.5185258388519287, 'roll': 0.6867507100105286, 'speed': 0.0}
2023-03-26 23:32:23,329 -[mav_srv] - INFO - -------GeoTag------------
2023-03-26 23:32:23,329 -[mav_srv] - INFO - {'time': 114662575, 'lat': 0.0, 'lon': 0.0, 'alt': 0.0, 'yaw': 161.46949768066406, 'pitch': -1.5163946151733398, 'roll': 0.6834126114845276, 'speed': 0.0}
2023-03-26 23:32:24,330 -[mav_srv] - INFO - -------GeoTag------------
2023-03-26 23:32:24,331 -[mav_srv] - INFO - {'time': 115662575, 'lat': 0.0, 'lon': 0.0, 'alt': 0.0, 'yaw': 161.46920776367188, 'pitch': -1.5165139436721802, 'roll': 0.6840820908546448, 'speed': 0.0}
2023-03-26 23:32:25,332 -[mav_srv] - INFO - -------GeoTag------------
2023-03-26 23:32:25,332 -[mav_srv] - INFO - {'time': 116662597, 'lat': 0.0, 'lon': 0.0, 'alt': 0.0, 'yaw': 161.48081970214844, 'pitch': -1.5145258903503418, 'roll': 0.6834792494773865, 'speed': 0.0}
2023-03-26 23:32:26,334 -[mav_srv] - INFO - -------GeoTag------------
2023-03-26 23:32:26,334 -[mav_srv] - INFO - {'time': 117661866, 'lat': 0.0, 'lon': 0.0, 'alt': 0.0, 'yaw': 161.4869384765625, 'pitch': -1.5109095573425293, 'roll': 0.6852274537086487, 'speed': 0.0}
2023-03-26 23:32:27,336 -[mav_srv] - INFO - -------GeoTag------------
2023-03-26 23:32:27,336 -[mav_srv] - INFO - {'time': 118662575, 'lat': 0.0, 'lon': 0.0, 'alt': 0.0, 'yaw': 161.47837829589844, 'pitch': -1.5084165334701538, 'roll': 0.6896966099739075, 'speed': 0.0}
2023-03-26 23:32:28,338 -[mav_srv] - INFO - -------GeoTag------------
2023-03-26 23:32:28,338 -[mav_srv] - INFO - {'time': 119662582, 'lat': 0.0, 'lon': 0.0, 'alt': 0.0, 'yaw': 161.47279357910156, 'pitch': -1.4610497951507568, 'roll': 0.7435179948806763, 'speed': 0.0}
2023-03-26 23:32:29,340 -[mav_srv] - INFO - -------GeoTag------------
2023-03-26 23:32:29,340 -[mav_srv] - INFO - {'time': 120663597, 'lat': 0.0, 'lon': 0.0, 'alt': 0.0, 'yaw': 161.43775939941406, 'pitch': -1.4680213928222656, 'roll': 0.7522992491722107, 'speed': 0.0}
2023-03-26 23:32:30,341 -[mav_srv] - INFO - -------GeoTag------------
2023-03-26 23:32:30,342 -[mav_srv] - INFO - {'time': 121662575, 'lat': 0.0, 'lon': 0.0, 'alt': 0.0, 'yaw': 161.41078186035156, 'pitch': -1.4669475555419922, 'roll': 0.755352258682251, 'speed': 0.0}
2023-03-26 23:32:31,343 -[mav_srv] - INFO - -------GeoTag------------
2023-03-26 23:32:31,344 -[mav_srv] - INFO - {'time': 122662575, 'lat': 0.0, 'lon': 0.0, 'alt': 0.0, 'yaw': 161.36801147460938, 'pitch': -1.4710389375686646, 'roll': 0.7432581186294556, 'speed': 0.0}
2023-03-26 23:32:32,345 -[mav_srv] - INFO - -------GeoTag------------
2023-03-26 23:32:32,346 -[mav_srv] - INFO - {'time': 123663669, 'lat': 0.0, 'lon': 0.0, 'alt': 0.0, 'yaw': 161.29776000976562, 'pitch': -1.4860621690750122, 'roll': 0.7151809334754944, 'speed': 0.0}
2023-03-26 23:32:33,347 -[mav_srv] - INFO - -------GeoTag------------
2023-03-26 23:32:33,347 -[mav_srv] - INFO - {'time': 124663576, 'lat': 0.0, 'lon': 0.0, 'alt': 0.0, 'yaw': 161.247314453125, 'pitch': -1.4891780614852905, 'roll': 0.7164028882980347, 'speed': 0.0}
2023-03-26 23:32:34,350 -[mav_srv] - INFO - -------GeoTag------------
2023-03-26 23:32:34,350 -[mav_srv] - INFO - {'time': 125662575, 'lat': 0.0, 'lon': 0.0, 'alt': 0.0, 'yaw': 161.2050018310547, 'pitch': -1.4914697408676147, 'roll': 0.7141671776771545, 'speed': 0.0}
2023-03-26 23:32:35,352 -[mav_srv] - INFO - -------GeoTag------------
2023-03-26 23:32:35,353 -[mav_srv] - INFO - {'time': 126661794, 'lat': 0.0, 'lon': 0.0, 'alt': 0.0, 'yaw': 161.16690063476562, 'pitch': -1.4883513450622559, 'roll': 0.7135753631591797, 'speed': 0.0}
2023-03-26 23:32:36,354 -[mav_srv] - INFO - -------GeoTag------------
2023-03-26 23:32:36,355 -[mav_srv] - INFO - {'time': 127661575, 'lat': 0.0, 'lon': 0.0, 'alt': 0.0, 'yaw': 161.14608764648438, 'pitch': -1.4936110973358154, 'roll': 0.7095232605934143, 'speed': 0.0}
2023-03-26 23:32:37,357 -[mav_srv] - INFO - -------GeoTag------------
2023-03-26 23:32:37,358 -[mav_srv] - INFO - {'time': 128661582, 'lat': 0.0, 'lon': 0.0, 'alt': 0.0, 'yaw': 161.10801696777344, 'pitch': -1.4937174320220947, 'roll': 0.7158275246620178, 'speed': 0.0}
2023-03-26 23:32:38,360 -[mav_srv] - INFO - -------GeoTag------------
2023-03-26 23:32:38,360 -[mav_srv] - INFO - {'time': 129661859, 'lat': 0.0, 'lon': 0.0, 'alt': 0.0, 'yaw': 161.07815551757812, 'pitch': -1.488848090171814, 'roll': 0.7283176779747009, 'speed': 0.0}
2023-03-26 23:32:39,362 -[mav_srv] - INFO - -------GeoTag------------
2023-03-26 23:32:39,362 -[mav_srv] - INFO - {'time': 130661576, 'lat': 0.0, 'lon': 0.0, 'alt': 0.0, 'yaw': 161.06185913085938, 'pitch': -1.491537094116211, 'roll': 0.7241705060005188, 'speed': 0.0}
2023-03-26 23:32:40,364 -[mav_srv] - INFO - -------GeoTag------------
2023-03-26 23:32:40,364 -[mav_srv] - INFO - {'time': 131662574, 'lat': 0.0, 'lon': 0.0, 'alt': 0.0, 'yaw': 161.016845703125, 'pitch': -1.498694658279419, 'roll': 0.7190887928009033, 'speed': 0.0}
2023-03-26 23:32:41,366 -[mav_srv] - INFO - -------GeoTag------------
2023-03-26 23:32:41,366 -[mav_srv] - INFO - {'time': 132661585, 'lat': 0.0, 'lon': 0.0, 'alt': 0.0, 'yaw': 160.9894561767578, 'pitch': -1.4990471601486206, 'roll': 0.7180531024932861, 'speed': 0.0}
2023-03-26 23:32:42,372 -[mav_srv] - INFO - -------GeoTag------------
2023-03-26 23:32:42,372 -[mav_srv] - INFO - {'time': 133661576, 'lat': 0.0, 'lon': 0.0, 'alt': 0.0, 'yaw': 160.9551544189453, 'pitch': -1.5079610347747803, 'roll': 0.7188212871551514, 'speed': 0.0}
2023-03-26 23:32:43,374 -[mav_srv] - INFO - -------GeoTag------------
2023-03-26 23:32:43,374 -[mav_srv] - INFO - {'time': 134663607, 'lat': 0.0, 'lon': 0.0, 'alt': 0.0, 'yaw': 160.92401123046875, 'pitch': -1.5065137147903442, 'roll': 0.7174772620201111, 'speed': 0.0}
2023-03-26 23:32:44,375 -[mav_srv] - INFO - -------GeoTag------------
2023-03-26 23:32:44,375 -[mav_srv] - INFO - {'time': 135662264, 'lat': 0.0, 'lon': 0.0, 'alt': 0.0, 'yaw': 160.90626525878906, 'pitch': -1.5029332637786865, 'roll': 0.722366452217102, 'speed': 0.0}
2023-03-26 23:32:45,376 -[mav_srv] - INFO - -------GeoTag------------
2023-03-26 23:32:45,377 -[mav_srv] - INFO - {'time': 136661576, 'lat': 0.0, 'lon': 0.0, 'alt': 0.0, 'yaw': 160.86749267578125, 'pitch': -1.5021470785140991, 'roll': 0.7241877913475037, 'speed': 0.0}
2023-03-26 23:32:46,378 -[mav_srv] - INFO - -------GeoTag------------
2023-03-26 23:32:46,378 -[mav_srv] - INFO - {'time': 137661582, 'lat': 0.0, 'lon': 0.0, 'alt': 0.0, 'yaw': 160.83935546875, 'pitch': -1.5045183897018433, 'roll': 0.7249864339828491, 'speed': 0.0}
2023-03-26 23:32:47,380 -[mav_srv] - INFO - -------GeoTag------------
2023-03-26 23:32:47,380 -[mav_srv] - INFO - {'time': 138662706, 'lat': 0.0, 'lon': 0.0, 'alt': 0.0, 'yaw': 160.84291076660156, 'pitch': -1.5027365684509277, 'roll': 0.7245798110961914, 'speed': 0.0}
2023-03-26 23:32:48,381 -[mav_srv] - INFO - -------GeoTag------------
2023-03-26 23:32:48,382 -[mav_srv] - INFO - {'time': 139661865, 'lat': 0.0, 'lon': 0.0, 'alt': 0.0, 'yaw': 160.83103942871094, 'pitch': -1.506267786026001, 'roll': 0.7202235460281372, 'speed': 0.0}
2023-03-26 23:32:49,384 -[mav_srv] - INFO - -------GeoTag------------
2023-03-26 23:32:49,384 -[mav_srv] - INFO - {'time': 140662583, 'lat': 0.0, 'lon': 0.0, 'alt': 0.0, 'yaw': 160.81146240234375, 'pitch': -1.5082236528396606, 'roll': 0.7206557393074036, 'speed': 0.0}
2023-03-26 23:32:50,386 -[mav_srv] - INFO - -------GeoTag------------
2023-03-26 23:32:50,386 -[mav_srv] - INFO - {'time': 141662577, 'lat': 0.0, 'lon': 0.0, 'alt': 0.0, 'yaw': 160.79222106933594, 'pitch': -1.5102620124816895, 'roll': 0.7203029990196228, 'speed': 0.0}
2023-03-26 23:32:51,389 -[mav_srv] - INFO - -------GeoTag------------
2023-03-26 23:32:51,395 -[mav_srv] - INFO - {'time': 142661582, 'lat': 0.0, 'lon': 0.0, 'alt': 0.0, 'yaw': 160.7515869140625, 'pitch': -1.506329894065857, 'roll': 0.7195689678192139, 'speed': 0.0}
2023-03-26 23:32:52,397 -[mav_srv] - INFO - -------GeoTag------------
2023-03-26 23:32:52,403 -[mav_srv] - INFO - {'time': 143662575, 'lat': 0.0, 'lon': 0.0, 'alt': 0.0, 'yaw': 160.7240447998047, 'pitch': -1.510559320449829, 'roll': 0.7181011438369751, 'speed': 0.0}
2023-03-26 23:32:53,405 -[mav_srv] - INFO - -------GeoTag------------
2023-03-26 23:32:53,405 -[mav_srv] - INFO - {'time': 144662624, 'lat': 0.0, 'lon': 0.0, 'alt': 0.0, 'yaw': 160.6897735595703, 'pitch': -1.5068343877792358, 'roll': 0.7218561768531799, 'speed': 0.0}
2023-03-26 23:32:54,407 -[mav_srv] - INFO - -------GeoTag------------
2023-03-26 23:32:54,407 -[mav_srv] - INFO - {'time': 145663575, 'lat': 0.0, 'lon': 0.0, 'alt': 0.0, 'yaw': 160.67037963867188, 'pitch': -1.5055829286575317, 'roll': 0.7214532494544983, 'speed': 0.0}
2023-03-26 23:32:55,409 -[mav_srv] - INFO - -------GeoTag------------
2023-03-26 23:32:55,409 -[mav_srv] - INFO - {'time': 146662576, 'lat': 0.0, 'lon': 0.0, 'alt': 0.0, 'yaw': 160.65110778808594, 'pitch': -1.506711721420288, 'roll': 0.7168909311294556, 'speed': 0.0}
2023-03-26 23:32:56,410 -[mav_srv] - INFO - -------GeoTag------------
2023-03-26 23:32:56,411 -[mav_srv] - INFO - {'time': 147661576, 'lat': 0.0, 'lon': 0.0, 'alt': 0.0, 'yaw': 160.60247802734375, 'pitch': -1.502701997756958, 'roll': 0.7164300680160522, 'speed': 0.0}
2023-03-26 23:32:57,412 -[mav_srv] - INFO - -------GeoTag------------
2023-03-26 23:32:57,413 -[mav_srv] - INFO - {'time': 148660593, 'lat': 0.0, 'lon': 0.0, 'alt': 0.0, 'yaw': 160.59783935546875, 'pitch': -1.50863778591156, 'roll': 0.7151481509208679, 'speed': 0.0}
2023-03-26 23:32:58,414 -[mav_srv] - INFO - -------GeoTag------------
2023-03-26 23:32:58,415 -[mav_srv] - INFO - {'time': 149661614, 'lat': 0.0, 'lon': 0.0, 'alt': 0.0, 'yaw': 160.5694122314453, 'pitch': -1.5093557834625244, 'roll': 0.7180069088935852, 'speed': 0.0}
2023-03-26 23:32:59,416 -[mav_srv] - INFO - -------GeoTag------------
2023-03-26 23:32:59,417 -[mav_srv] - INFO - {'time': 150662669, 'lat': 0.0, 'lon': 0.0, 'alt': 0.0, 'yaw': 160.51585388183594, 'pitch': -1.4987934827804565, 'roll': 0.721674919128418, 'speed': 0.0}
2023-03-26 23:33:00,418 -[mav_srv] - INFO - -------GeoTag------------
2023-03-26 23:33:00,418 -[mav_srv] - INFO - {'time': 151662576, 'lat': 0.0, 'lon': 0.0, 'alt': 0.0, 'yaw': 160.52037048339844, 'pitch': -1.4998860359191895, 'roll': 0.7222185134887695, 'speed': 0.0}
2023-03-26 23:33:01,421 -[mav_srv] - INFO - -------GeoTag------------
2023-03-26 23:33:01,422 -[mav_srv] - INFO - {'time': 152661576, 'lat': 0.0, 'lon': 0.0, 'alt': 0.0, 'yaw': 160.46038818359375, 'pitch': -1.5018178224563599, 'roll': 0.7220389246940613, 'speed': 0.0}
2023-03-26 23:33:02,436 -[mav_srv] - INFO - -------GeoTag------------
2023-03-26 23:33:02,436 -[mav_srv] - INFO - {'time': 153860577, 'lat': 0.0, 'lon': 0.0, 'alt': 0.0, 'yaw': 160.44305419921875, 'pitch': -1.503188967704773, 'roll': 0.7215256690979004, 'speed': 0.0}
2023-03-26 23:33:03,437 -[mav_srv] - INFO - -------GeoTag------------
2023-03-26 23:33:03,437 -[mav_srv] - INFO - {'time': 154860840, 'lat': 0.0, 'lon': 0.0, 'alt': 0.0, 'yaw': 160.4517364501953, 'pitch': -1.5065271854400635, 'roll': 0.7221717834472656, 'speed': 0.0}
2023-03-26 23:33:04,440 -[mav_srv] - INFO - -------GeoTag------------
2023-03-26 23:33:04,440 -[mav_srv] - INFO - {'time': 155860576, 'lat': 0.0, 'lon': 0.0, 'alt': 0.0, 'yaw': 160.4291534423828, 'pitch': -1.5080803632736206, 'roll': 0.7208768129348755, 'speed': 0.0}
2023-03-26 23:33:05,442 -[mav_srv] - INFO - -------GeoTag------------
2023-03-26 23:33:05,442 -[mav_srv] - INFO - {'time': 156860583, 'lat': 0.0, 'lon': 0.0, 'alt': 0.0, 'yaw': 160.42626953125, 'pitch': -1.5082318782806396, 'roll': 0.7185134291648865, 'speed': 0.0}
2023-03-26 23:33:06,444 -[mav_srv] - INFO - -------GeoTag------------
2023-03-26 23:33:06,444 -[mav_srv] - INFO - {'time': 157860574, 'lat': 0.0, 'lon': 0.0, 'alt': 0.0, 'yaw': 160.41122436523438, 'pitch': -1.5049949884414673, 'roll': 0.7190960645675659, 'speed': 0.0}
2023-03-26 23:33:07,451 -[mav_srv] - INFO - -------GeoTag------------
2023-03-26 23:33:07,452 -[mav_srv] - INFO - {'time': 158860619, 'lat': 0.0, 'lon': 0.0, 'alt': 0.0, 'yaw': 160.396728515625, 'pitch': -1.5077106952667236, 'roll': 0.7192219495773315, 'speed': 0.0}
2023-03-26 23:33:08,453 -[mav_srv] - INFO - -------GeoTag------------
2023-03-26 23:33:08,454 -[mav_srv] - INFO - {'time': 159860576, 'lat': 0.0, 'lon': 0.0, 'alt': 0.0, 'yaw': 160.38685607910156, 'pitch': -1.5053566694259644, 'roll': 0.7177971601486206, 'speed': 0.0}
2023-03-26 23:33:09,455 -[mav_srv] - INFO - -------GeoTag------------
2023-03-26 23:33:09,455 -[mav_srv] - INFO - {'time': 160860578, 'lat': 0.0, 'lon': 0.0, 'alt': 0.0, 'yaw': 160.3743896484375, 'pitch': -1.5038504600524902, 'roll': 0.7136749029159546, 'speed': 0.0}
2023-03-26 23:33:10,456 -[mav_srv] - INFO - -------GeoTag------------
2023-03-26 23:33:10,457 -[mav_srv] - INFO - {'time': 161860575, 'lat': 0.0, 'lon': 0.0, 'alt': 0.0, 'yaw': 160.3549041748047, 'pitch': -1.499005913734436, 'roll': 0.709832489490509, 'speed': 0.0}
2023-03-26 23:33:11,458 -[mav_srv] - INFO - -------GeoTag------------
2023-03-26 23:33:11,459 -[mav_srv] - INFO - {'time': 162860576, 'lat': 0.0, 'lon': 0.0, 'alt': 0.0, 'yaw': 160.3539581298828, 'pitch': -1.4983701705932617, 'roll': 0.7133234739303589, 'speed': 0.0}
2023-03-26 23:33:12,460 -[mav_srv] - INFO - -------GeoTag------------
2023-03-26 23:33:12,461 -[mav_srv] - INFO - {'time': 163860584, 'lat': 0.0, 'lon': 0.0, 'alt': 0.0, 'yaw': 160.33062744140625, 'pitch': -1.5001386404037476, 'roll': 0.7125293016433716, 'speed': 0.0}
2023-03-26 23:33:13,463 -[mav_srv] - INFO - -------GeoTag------------
2023-03-26 23:33:13,463 -[mav_srv] - INFO - {'time': 164860574, 'lat': 0.0, 'lon': 0.0, 'alt': 0.0, 'yaw': 160.32814025878906, 'pitch': -1.4984729290008545, 'roll': 0.7122122645378113, 'speed': 0.0}
2023-03-26 23:33:14,464 -[mav_srv] - INFO - -------GeoTag------------
2023-03-26 23:33:14,465 -[mav_srv] - INFO - {'time': 165861919, 'lat': 0.0, 'lon': 0.0, 'alt': 0.0, 'yaw': 160.3219757080078, 'pitch': -1.497294306755066, 'roll': 0.7096096873283386, 'speed': 0.0}
2023-03-26 23:33:15,468 -[mav_srv] - INFO - -------GeoTag------------
2023-03-26 23:33:15,468 -[mav_srv] - INFO - {'time': 166861575, 'lat': 0.0, 'lon': 0.0, 'alt': 0.0, 'yaw': 160.3318634033203, 'pitch': -1.493631362915039, 'roll': 0.714101254940033, 'speed': 0.0}
2023-03-26 23:33:16,470 -[mav_srv] - INFO - -------GeoTag------------
2023-03-26 23:33:16,470 -[mav_srv] - INFO - {'time': 167860616, 'lat': 0.0, 'lon': 0.0, 'alt': 0.0, 'yaw': 160.36740112304688, 'pitch': -1.4969030618667603, 'roll': 0.7122453451156616, 'speed': 0.0}
2023-03-26 23:33:17,477 -[mav_srv] - INFO - -------GeoTag------------
2023-03-26 23:33:17,477 -[mav_srv] - INFO - {'time': 168860865, 'lat': 0.0, 'lon': 0.0, 'alt': 0.0, 'yaw': 160.35235595703125, 'pitch': -1.5009121894836426, 'roll': 0.7065568566322327, 'speed': 0.0}
2023-03-26 23:33:18,478 -[mav_srv] - INFO - -------GeoTag------------
2023-03-26 23:33:18,478 -[mav_srv] - INFO - {'time': 169861576, 'lat': 0.0, 'lon': 0.0, 'alt': 0.0, 'yaw': 160.32623291015625, 'pitch': -1.4999488592147827, 'roll': 0.7052118182182312, 'speed': 0.0}
2023-03-26 23:33:19,481 -[mav_srv] - INFO - -------GeoTag------------
2023-03-26 23:33:19,481 -[mav_srv] - INFO - {'time': 170861575, 'lat': 0.0, 'lon': 0.0, 'alt': 0.0, 'yaw': 160.33966064453125, 'pitch': -1.4944747686386108, 'roll': 0.7115805745124817, 'speed': 0.0}
2023-03-26 23:33:20,483 -[mav_srv] - INFO - -------GeoTag------------
2023-03-26 23:33:20,483 -[mav_srv] - INFO - {'time': 171860679, 'lat': 0.0, 'lon': 0.0, 'alt': 0.0, 'yaw': 160.3362274169922, 'pitch': -1.4892116785049438, 'roll': 0.7087206244468689, 'speed': 0.0}
2023-03-26 23:33:21,486 -[mav_srv] - INFO - -------GeoTag------------
2023-03-26 23:33:21,492 -[mav_srv] - INFO - {'time': 172860578, 'lat': 0.0, 'lon': 0.0, 'alt': 0.0, 'yaw': 160.32022094726562, 'pitch': -1.4900010824203491, 'roll': 0.7096973657608032, 'speed': 0.0}
2023-03-26 23:33:22,494 -[mav_srv] - INFO - -------GeoTag------------
2023-03-26 23:33:22,494 -[mav_srv] - INFO - {'time': 173861575, 'lat': 0.0, 'lon': 0.0, 'alt': 0.0, 'yaw': 160.30946350097656, 'pitch': -1.494407296180725, 'roll': 0.7145556807518005, 'speed': 0.0}
2023-03-26 23:33:23,496 -[mav_srv] - INFO - -------GeoTag------------
2023-03-26 23:33:23,496 -[mav_srv] - INFO - {'time': 174861718, 'lat': 0.0, 'lon': 0.0, 'alt': 0.0, 'yaw': 160.29248046875, 'pitch': -1.4878164529800415, 'roll': 0.7192463874816895, 'speed': 0.0}
2023-03-26 23:33:24,498 -[mav_srv] - INFO - -------GeoTag------------
2023-03-26 23:33:24,498 -[mav_srv] - INFO - {'time': 175860575, 'lat': 0.0, 'lon': 0.0, 'alt': 0.0, 'yaw': 160.29811096191406, 'pitch': -1.4964953660964966, 'roll': 0.7152047753334045, 'speed': 0.0}
2023-03-26 23:33:25,500 -[mav_srv] - INFO - -------GeoTag------------
2023-03-26 23:33:25,500 -[mav_srv] - INFO - {'time': 176860576, 'lat': 0.0, 'lon': 0.0, 'alt': 0.0, 'yaw': 160.2784881591797, 'pitch': -1.4923118352890015, 'roll': 0.7154823541641235, 'speed': 0.0}
2023-03-26 23:33:26,502 -[mav_srv] - INFO - -------GeoTag------------
2023-03-26 23:33:26,507 -[mav_srv] - INFO - {'time': 177861576, 'lat': 0.0, 'lon': 0.0, 'alt': 0.0, 'yaw': 160.26583862304688, 'pitch': -1.4932315349578857, 'roll': 0.7143317461013794, 'speed': 0.0}
2023-03-26 23:33:27,510 -[mav_srv] - INFO - -------GeoTag------------
2023-03-26 23:33:27,510 -[mav_srv] - INFO - {'time': 178861581, 'lat': 0.0, 'lon': 0.0, 'alt': 0.0, 'yaw': 160.25839233398438, 'pitch': -1.4967738389968872, 'roll': 0.717431902885437, 'speed': 0.0}
2023-03-26 23:33:28,512 -[mav_srv] - INFO - -------GeoTag------------
2023-03-26 23:33:28,513 -[mav_srv] - INFO - {'time': 179860575, 'lat': 0.0, 'lon': 0.0, 'alt': 0.0, 'yaw': 160.25717163085938, 'pitch': -1.506345272064209, 'roll': 0.7146431803703308, 'speed': 0.0}
2023-03-26 23:33:29,515 -[mav_srv] - INFO - -------GeoTag------------
2023-03-26 23:33:29,515 -[mav_srv] - INFO - {'time': 180860911, 'lat': 0.0, 'lon': 0.0, 'alt': 0.0, 'yaw': 160.26132202148438, 'pitch': -1.5060003995895386, 'roll': 0.7123536467552185, 'speed': 0.0}
2023-03-26 23:33:30,517 -[mav_srv] - INFO - -------GeoTag------------
2023-03-26 23:33:30,518 -[mav_srv] - INFO - {'time': 181861576, 'lat': 0.0, 'lon': 0.0, 'alt': 0.0, 'yaw': 160.2600860595703, 'pitch': -1.5079466104507446, 'roll': 0.7153127789497375, 'speed': 0.0}
2023-03-26 23:33:31,520 -[mav_srv] - INFO - -------GeoTag------------
2023-03-26 23:33:31,520 -[mav_srv] - INFO - {'time': 182860576, 'lat': 0.0, 'lon': 0.0, 'alt': 0.0, 'yaw': 160.24024963378906, 'pitch': -1.5052409172058105, 'roll': 0.719767153263092, 'speed': 0.0}
2023-03-26 23:33:32,525 -[mav_srv] - INFO - -------GeoTag------------
2023-03-26 23:33:32,526 -[mav_srv] - INFO - {'time': 183860575, 'lat': 0.0, 'lon': 0.0, 'alt': 0.0, 'yaw': 160.218017578125, 'pitch': -1.5066008567810059, 'roll': 0.7173526883125305, 'speed': 0.0}
2023-03-26 23:33:33,529 -[mav_srv] - INFO - -------GeoTag------------
2023-03-26 23:33:33,529 -[mav_srv] - INFO - {'time': 184860582, 'lat': 0.0, 'lon': 0.0, 'alt': 0.0, 'yaw': 160.1979522705078, 'pitch': -1.5004692077636719, 'roll': 0.7164222002029419, 'speed': 0.0}
2023-03-26 23:33:34,530 -[mav_srv] - INFO - -------GeoTag------------
2023-03-26 23:33:34,531 -[mav_srv] - INFO - {'time': 185859638, 'lat': 0.0, 'lon': 0.0, 'alt': 0.0, 'yaw': 160.20010375976562, 'pitch': -1.5058581829071045, 'roll': 0.7178375720977783, 'speed': 0.0}
2023-03-26 23:33:35,532 -[mav_srv] - INFO - -------GeoTag------------
2023-03-26 23:33:35,532 -[mav_srv] - INFO - {'time': 186860575, 'lat': 0.0, 'lon': 0.0, 'alt': 0.0, 'yaw': 160.209228515625, 'pitch': -1.5038083791732788, 'roll': 0.7205097079277039, 'speed': 0.0}
2023-03-26 23:33:36,534 -[mav_srv] - INFO - -------GeoTag------------
2023-03-26 23:33:36,535 -[mav_srv] - INFO - {'time': 187860575, 'lat': 0.0, 'lon': 0.0, 'alt': 0.0, 'yaw': 160.19451904296875, 'pitch': -1.5073387622833252, 'roll': 0.7190471291542053, 'speed': 0.0}
2023-03-26 23:33:37,540 -[mav_srv] - INFO - -------GeoTag------------
2023-03-26 23:33:37,540 -[mav_srv] - INFO - {'time': 188860628, 'lat': 0.0, 'lon': 0.0, 'alt': 0.0, 'yaw': 160.20797729492188, 'pitch': -1.4997557401657104, 'roll': 0.722903311252594, 'speed': 0.0}
2023-03-26 23:33:38,542 -[mav_srv] - INFO - -------GeoTag------------
2023-03-26 23:33:38,543 -[mav_srv] - INFO - {'time': 189860575, 'lat': 0.0, 'lon': 0.0, 'alt': 0.0, 'yaw': 160.185791015625, 'pitch': -1.4993236064910889, 'roll': 0.7203122973442078, 'speed': 0.0}
2023-03-26 23:33:39,544 -[mav_srv] - INFO - -------GeoTag------------
2023-03-26 23:33:39,544 -[mav_srv] - INFO - {'time': 190859600, 'lat': 0.0, 'lon': 0.0, 'alt': 0.0, 'yaw': 160.1910400390625, 'pitch': -1.497689962387085, 'roll': 0.7177230715751648, 'speed': 0.0}
2023-03-26 23:33:40,545 -[mav_srv] - INFO - -------GeoTag------------
2023-03-26 23:33:40,545 -[mav_srv] - INFO - {'time': 191861575, 'lat': 0.0, 'lon': 0.0, 'alt': 0.0, 'yaw': 160.23281860351562, 'pitch': -1.495214581489563, 'roll': 0.7196316719055176, 'speed': 0.0}
2023-03-26 23:33:41,547 -[mav_srv] - INFO - -------GeoTag------------
2023-03-26 23:33:41,547 -[mav_srv] - INFO - {'time': 192860578, 'lat': 0.0, 'lon': 0.0, 'alt': 0.0, 'yaw': 160.21156311035156, 'pitch': -1.4956458806991577, 'roll': 0.7163475751876831, 'speed': 0.0}
2023-03-26 23:33:42,556 -[mav_srv] - INFO - -------GeoTag------------
2023-03-26 23:33:42,556 -[mav_srv] - INFO - {'time': 193859576, 'lat': 0.0, 'lon': 0.0, 'alt': 0.0, 'yaw': 160.21954345703125, 'pitch': -1.4934290647506714, 'roll': 0.7174962162971497, 'speed': 0.0}
2023-03-26 23:33:43,557 -[mav_srv] - INFO - -------GeoTag------------
2023-03-26 23:33:43,558 -[mav_srv] - INFO - {'time': 194859575, 'lat': 0.0, 'lon': 0.0, 'alt': 0.0, 'yaw': 160.2744598388672, 'pitch': -1.4914346933364868, 'roll': 0.7193822264671326, 'speed': 0.0}
2023-03-26 23:33:44,560 -[mav_srv] - INFO - -------GeoTag------------
2023-03-26 23:33:44,560 -[mav_srv] - INFO - {'time': 195859614, 'lat': 0.0, 'lon': 0.0, 'alt': 0.0, 'yaw': 160.2449493408203, 'pitch': -1.4939285516738892, 'roll': 0.7156757116317749, 'speed': 0.0}
2023-03-26 23:33:45,561 -[mav_srv] - INFO - -------GeoTag------------
2023-03-26 23:33:45,561 -[mav_srv] - INFO - {'time': 196859576, 'lat': 0.0, 'lon': 0.0, 'alt': 0.0, 'yaw': 160.2594451904297, 'pitch': -1.4873343706130981, 'roll': 0.7180728912353516, 'speed': 0.0}
2023-03-26 23:33:46,562 -[mav_srv] - INFO - -------GeoTag------------
2023-03-26 23:33:46,563 -[mav_srv] - INFO - {'time': 197860574, 'lat': 0.0, 'lon': 0.0, 'alt': 0.0, 'yaw': 160.27386474609375, 'pitch': -1.4861098527908325, 'roll': 0.7213307023048401, 'speed': 0.0}
2023-03-26 23:33:47,571 -[mav_srv] - INFO - -------GeoTag------------
2023-03-26 23:33:47,572 -[mav_srv] - INFO - {'time': 198860592, 'lat': 0.0, 'lon': 0.0, 'alt': 0.0, 'yaw': 160.2385711669922, 'pitch': -1.4892468452453613, 'roll': 0.7166069149971008, 'speed': 0.0}
2023-03-26 23:33:48,574 -[mav_srv] - INFO - -------GeoTag------------
2023-03-26 23:33:48,574 -[mav_srv] - INFO - {'time': 199859582, 'lat': 0.0, 'lon': 0.0, 'alt': 0.0, 'yaw': 160.2588653564453, 'pitch': -1.4962866306304932, 'roll': 0.7148788571357727, 'speed': 0.0}
2023-03-26 23:33:49,576 -[mav_srv] - INFO - -------GeoTag------------
2023-03-26 23:33:49,577 -[mav_srv] - INFO - {'time': 200859575, 'lat': 0.0, 'lon': 0.0, 'alt': 0.0, 'yaw': 160.2720184326172, 'pitch': -1.4969875812530518, 'roll': 0.7228435277938843, 'speed': 0.0}
2023-03-26 23:33:50,579 -[mav_srv] - INFO - -------GeoTag------------
2023-03-26 23:33:50,579 -[mav_srv] - INFO - {'time': 201860652, 'lat': 0.0, 'lon': 0.0, 'alt': 0.0, 'yaw': 160.25396728515625, 'pitch': -1.490371584892273, 'roll': 0.7209635972976685, 'speed': 0.0}
2023-03-26 23:33:51,581 -[mav_srv] - INFO - -------GeoTag------------
2023-03-26 23:33:51,586 -[mav_srv] - INFO - {'time': 202859577, 'lat': 0.0, 'lon': 0.0, 'alt': 0.0, 'yaw': 160.2572784423828, 'pitch': -1.4912878274917603, 'roll': 0.7182079553604126, 'speed': 0.0}
2023-03-26 23:33:52,588 -[mav_srv] - INFO - -------GeoTag------------
2023-03-26 23:33:52,588 -[mav_srv] - INFO - {'time': 203859576, 'lat': 0.0, 'lon': 0.0, 'alt': 0.0, 'yaw': 160.25070190429688, 'pitch': -1.4939008951187134, 'roll': 0.7160676121711731, 'speed': 0.0}
2023-03-26 23:33:53,590 -[mav_srv] - INFO - -------GeoTag------------
2023-03-26 23:33:53,590 -[mav_srv] - INFO - {'time': 204859814, 'lat': 0.0, 'lon': 0.0, 'alt': 0.0, 'yaw': 160.27474975585938, 'pitch': -1.4869941473007202, 'roll': 0.7173855304718018, 'speed': 0.0}
2023-03-26 23:33:54,595 -[mav_srv] - INFO - -------GeoTag------------
2023-03-26 23:33:54,596 -[mav_srv] - INFO - {'time': 205860582, 'lat': 0.0, 'lon': 0.0, 'alt': 0.0, 'yaw': 160.29273986816406, 'pitch': -1.485203504562378, 'roll': 0.7138859033584595, 'speed': 0.0}
2023-03-26 23:33:55,597 -[mav_srv] - INFO - -------GeoTag------------
2023-03-26 23:33:55,598 -[mav_srv] - INFO - {'time': 206859576, 'lat': 0.0, 'lon': 0.0, 'alt': 0.0, 'yaw': 160.29730224609375, 'pitch': -1.4849971532821655, 'roll': 0.7138293981552124, 'speed': 0.0}
2023-03-26 23:33:56,599 -[mav_srv] - INFO - -------GeoTag------------
2023-03-26 23:33:56,605 -[mav_srv] - INFO - {'time': 207858576, 'lat': 0.0, 'lon': 0.0, 'alt': 0.0, 'yaw': 160.3237762451172, 'pitch': -1.4872742891311646, 'roll': 0.7173954844474792, 'speed': 0.0}
2023-03-26 23:33:57,607 -[mav_srv] - INFO - -------GeoTag------------
2023-03-26 23:33:57,608 -[mav_srv] - INFO - {'time': 208858596, 'lat': 0.0, 'lon': 0.0, 'alt': 0.0, 'yaw': 160.3147430419922, 'pitch': -1.4878184795379639, 'roll': 0.7160119414329529, 'speed': 0.0}
2023-03-26 23:33:58,609 -[mav_srv] - INFO - -------GeoTag------------
2023-03-26 23:33:58,610 -[mav_srv] - INFO - {'time': 209858577, 'lat': 0.0, 'lon': 0.0, 'alt': 0.0, 'yaw': 160.3421630859375, 'pitch': -1.4830241203308105, 'roll': 0.721270740032196, 'speed': 0.0}
2023-03-26 23:33:59,611 -[mav_srv] - INFO - -------GeoTag------------
2023-03-26 23:33:59,612 -[mav_srv] - INFO - {'time': 210858582, 'lat': 0.0, 'lon': 0.0, 'alt': 0.0, 'yaw': 160.3686065673828, 'pitch': -1.4862337112426758, 'roll': 0.7237918376922607, 'speed': 0.0}
2023-03-26 23:34:00,614 -[mav_srv] - INFO - -------GeoTag------------
2023-03-26 23:34:00,614 -[mav_srv] - INFO - {'time': 211860586, 'lat': 0.0, 'lon': 0.0, 'alt': 0.0, 'yaw': 160.3401641845703, 'pitch': -1.4847618341445923, 'roll': 0.721718430519104, 'speed': 0.0}
2023-03-26 23:34:01,615 -[mav_srv] - INFO - -------GeoTag------------
2023-03-26 23:34:01,616 -[mav_srv] - INFO - {'time': 212859583, 'lat': 0.0, 'lon': 0.0, 'alt': 0.0, 'yaw': 160.3295440673828, 'pitch': -1.4891847372055054, 'roll': 0.7194815278053284, 'speed': 0.0}
2023-03-26 23:34:02,617 -[mav_srv] - INFO - -------GeoTag------------
2023-03-26 23:34:02,618 -[mav_srv] - INFO - {'time': 213858576, 'lat': 0.0, 'lon': 0.0, 'alt': 0.0, 'yaw': 160.3314971923828, 'pitch': -1.4865467548370361, 'roll': 0.7167394161224365, 'speed': 0.0}
2023-03-26 23:34:03,620 -[mav_srv] - INFO - -------GeoTag------------
2023-03-26 23:34:03,620 -[mav_srv] - INFO - {'time': 214858576, 'lat': 0.0, 'lon': 0.0, 'alt': 0.0, 'yaw': 160.340087890625, 'pitch': -1.485357403755188, 'roll': 0.7164788842201233, 'speed': 0.0}
2023-03-26 23:34:04,622 -[mav_srv] - INFO - -------GeoTag------------
2023-03-26 23:34:04,623 -[mav_srv] - INFO - {'time': 215858575, 'lat': 0.0, 'lon': 0.0, 'alt': 0.0, 'yaw': 160.38697814941406, 'pitch': -1.4870238304138184, 'roll': 0.7165684103965759, 'speed': 0.0}
2023-03-26 23:34:05,624 -[mav_srv] - INFO - -------GeoTag------------
2023-03-26 23:34:05,625 -[mav_srv] - INFO - {'time': 216858576, 'lat': 0.0, 'lon': 0.0, 'alt': 0.0, 'yaw': 160.36373901367188, 'pitch': -1.4842005968093872, 'roll': 0.717065691947937, 'speed': 0.0}
2023-03-26 23:34:06,629 -[mav_srv] - INFO - -------GeoTag------------
2023-03-26 23:34:06,629 -[mav_srv] - INFO - {'time': 218059574, 'lat': 0.0, 'lon': 0.0, 'alt': 0.0, 'yaw': 160.36924743652344, 'pitch': -1.4808889627456665, 'roll': 0.7169783115386963, 'speed': 0.0}
2023-03-26 23:34:07,631 -[mav_srv] - INFO - -------GeoTag------------
2023-03-26 23:34:07,631 -[mav_srv] - INFO - {'time': 219059575, 'lat': 0.0, 'lon': 0.0, 'alt': 0.0, 'yaw': 160.3961639404297, 'pitch': -1.4804283380508423, 'roll': 0.716533362865448, 'speed': 0.0}
2023-03-26 23:34:08,634 -[mav_srv] - INFO - -------GeoTag------------
2023-03-26 23:34:08,634 -[mav_srv] - INFO - {'time': 220060577, 'lat': 0.0, 'lon': 0.0, 'alt': 0.0, 'yaw': 160.37730407714844, 'pitch': -1.4761645793914795, 'roll': 0.717973530292511, 'speed': 0.0}
2023-03-26 23:34:09,635 -[mav_srv] - INFO - -------GeoTag------------
2023-03-26 23:34:09,636 -[mav_srv] - INFO - {'time': 221058577, 'lat': 0.0, 'lon': 0.0, 'alt': 0.0, 'yaw': 160.4027557373047, 'pitch': -1.4778674840927124, 'roll': 0.7189092636108398, 'speed': 0.0}
2023-03-26 23:34:10,638 -[mav_srv] - INFO - -------GeoTag------------
2023-03-26 23:34:10,639 -[mav_srv] - INFO - {'time': 222058583, 'lat': 0.0, 'lon': 0.0, 'alt': 0.0, 'yaw': 160.39390563964844, 'pitch': -1.4814268350601196, 'roll': 0.7124640941619873, 'speed': 0.0}
2023-03-26 23:34:11,644 -[mav_srv] - INFO - -------GeoTag------------
2023-03-26 23:34:11,645 -[mav_srv] - INFO - {'time': 223057582, 'lat': 0.0, 'lon': 0.0, 'alt': 0.0, 'yaw': 160.3963623046875, 'pitch': -1.4828073978424072, 'roll': 0.7132778167724609, 'speed': 0.0}
2023-03-26 23:34:12,647 -[mav_srv] - INFO - -------GeoTag------------
2023-03-26 23:34:12,647 -[mav_srv] - INFO - {'time': 224058575, 'lat': 0.0, 'lon': 0.0, 'alt': 0.0, 'yaw': 160.4266815185547, 'pitch': -1.4844958782196045, 'roll': 0.7164518237113953, 'speed': 0.0}
2023-03-26 23:34:13,649 -[mav_srv] - INFO - -------GeoTag------------
2023-03-26 23:34:13,649 -[mav_srv] - INFO - {'time': 225055356, 'lat': 0.0, 'lon': 0.0, 'alt': 0.0, 'yaw': 160.41107177734375, 'pitch': -1.482500433921814, 'roll': 0.7106579542160034, 'speed': 0.0}
2023-03-26 23:34:14,651 -[mav_srv] - INFO - -------GeoTag------------
2023-03-26 23:34:14,652 -[mav_srv] - INFO - {'time': 226058575, 'lat': 0.0, 'lon': 0.0, 'alt': 0.0, 'yaw': 160.42625427246094, 'pitch': -1.4873504638671875, 'roll': 0.7158631682395935, 'speed': 0.0}
2023-03-26 23:34:15,654 -[mav_srv] - INFO - -------GeoTag------------
2023-03-26 23:34:15,654 -[mav_srv] - INFO - {'time': 227057577, 'lat': 0.0, 'lon': 0.0, 'alt': 0.0, 'yaw': 160.43309020996094, 'pitch': -1.482930064201355, 'roll': 0.7142061591148376, 'speed': 0.0}
2023-03-26 23:34:16,656 -[mav_srv] - INFO - -------GeoTag------------
2023-03-26 23:34:16,661 -[mav_srv] - INFO - {'time': 228058575, 'lat': 0.0, 'lon': 0.0, 'alt': 0.0, 'yaw': 160.43692016601562, 'pitch': -1.4764090776443481, 'roll': 0.7156011462211609, 'speed': 0.0}
2023-03-26 23:34:17,663 -[mav_srv] - INFO - -------GeoTag------------
2023-03-26 23:34:17,663 -[mav_srv] - INFO - {'time': 229058582, 'lat': 0.0, 'lon': 0.0, 'alt': 0.0, 'yaw': 160.4422149658203, 'pitch': -1.4850624799728394, 'roll': 0.7134298086166382, 'speed': 0.0}
2023-03-26 23:34:18,664 -[mav_srv] - INFO - -------GeoTag------------
2023-03-26 23:34:18,665 -[mav_srv] - INFO - {'time': 230058131, 'lat': 0.0, 'lon': 0.0, 'alt': 0.0, 'yaw': 160.4661407470703, 'pitch': -1.4857369661331177, 'roll': 0.7132875323295593, 'speed': 0.0}
2023-03-26 23:34:19,667 -[mav_srv] - INFO - -------GeoTag------------
2023-03-26 23:34:19,667 -[mav_srv] - INFO - {'time': 231059578, 'lat': 0.0, 'lon': 0.0, 'alt': 0.0, 'yaw': 160.4613037109375, 'pitch': -1.4782589673995972, 'roll': 0.7198031544685364, 'speed': 0.0}
2023-03-26 23:34:20,669 -[mav_srv] - INFO - -------GeoTag------------
2023-03-26 23:34:20,669 -[mav_srv] - INFO - {'time': 232057578, 'lat': 0.0, 'lon': 0.0, 'alt': 0.0, 'yaw': 160.46823120117188, 'pitch': -1.486426830291748, 'roll': 0.7139344811439514, 'speed': 0.0}
2023-03-26 23:34:21,670 -[mav_srv] - INFO - -------GeoTag------------
2023-03-26 23:34:21,678 -[mav_srv] - INFO - {'time': 233058417, 'lat': 0.0, 'lon': 0.0, 'alt': 0.0, 'yaw': 160.4660186767578, 'pitch': -1.481793999671936, 'roll': 0.7127648591995239, 'speed': 0.0}
2023-03-26 23:34:22,679 -[mav_srv] - INFO - -------GeoTag------------
2023-03-26 23:34:22,680 -[mav_srv] - INFO - {'time': 234059582, 'lat': 0.0, 'lon': 0.0, 'alt': 0.0, 'yaw': 160.4819793701172, 'pitch': -1.4819278717041016, 'roll': 0.7157762050628662, 'speed': 0.0}
2023-03-26 23:34:23,681 -[mav_srv] - INFO - -------GeoTag------------
2023-03-26 23:34:23,681 -[mav_srv] - INFO - {'time': 235057585, 'lat': 0.0, 'lon': 0.0, 'alt': 0.0, 'yaw': 160.5019989013672, 'pitch': -1.4841773509979248, 'roll': 0.7151602506637573, 'speed': 0.0}
2023-03-26 23:34:24,683 -[mav_srv] - INFO - -------GeoTag------------
2023-03-26 23:34:24,683 -[mav_srv] - INFO - {'time': 236057576, 'lat': 0.0, 'lon': 0.0, 'alt': 0.0, 'yaw': 160.51634216308594, 'pitch': -1.4856501817703247, 'roll': 0.7148468494415283, 'speed': 0.0}
2023-03-26 23:34:25,686 -[mav_srv] - INFO - -------GeoTag------------
2023-03-26 23:34:25,686 -[mav_srv] - INFO - {'time': 237057575, 'lat': 0.0, 'lon': 0.0, 'alt': 0.0, 'yaw': 160.5383758544922, 'pitch': -1.4827316999435425, 'roll': 0.717404842376709, 'speed': 0.0}
2023-03-26 23:34:26,687 -[mav_srv] - INFO - -------GeoTag------------
2023-03-26 23:34:26,688 -[mav_srv] - INFO - {'time': 238058576, 'lat': 0.0, 'lon': 0.0, 'alt': 0.0, 'yaw': 160.55010986328125, 'pitch': -1.4853376150131226, 'roll': 0.7105502486228943, 'speed': 0.0}
2023-03-26 23:34:27,701 -[mav_srv] - INFO - -------GeoTag------------
2023-03-26 23:34:27,702 -[mav_srv] - INFO - {'time': 239058652, 'lat': 0.0, 'lon': 0.0, 'alt': 0.0, 'yaw': 160.5210418701172, 'pitch': -1.4887615442276, 'roll': 0.6986450552940369, 'speed': 0.0}
2023-03-26 23:34:28,703 -[mav_srv] - INFO - -------GeoTag------------
2023-03-26 23:34:28,703 -[mav_srv] - INFO - {'time': 240058575, 'lat': 0.0, 'lon': 0.0, 'alt': 0.0, 'yaw': 160.52662658691406, 'pitch': -1.4958083629608154, 'roll': 0.6883392333984375, 'speed': 0.0}
2023-03-26 23:34:29,705 -[mav_srv] - INFO - -------GeoTag------------
2023-03-26 23:34:29,706 -[mav_srv] - INFO - {'time': 241057576, 'lat': 0.0, 'lon': 0.0, 'alt': 0.0, 'yaw': 160.5154266357422, 'pitch': -1.499266505241394, 'roll': 0.6871983408927917, 'speed': 0.0}
2023-03-26 23:34:30,708 -[mav_srv] - INFO - -------GeoTag------------
2023-03-26 23:34:30,708 -[mav_srv] - INFO - {'time': 242058850, 'lat': 0.0, 'lon': 0.0, 'alt': 0.0, 'yaw': 160.5124969482422, 'pitch': -1.4923436641693115, 'roll': 0.6895803213119507, 'speed': 0.0}
2023-03-26 23:34:31,710 -[mav_srv] - INFO - -------GeoTag------------
2023-03-26 23:34:31,711 -[mav_srv] - INFO - {'time': 243057576, 'lat': 0.0, 'lon': 0.0, 'alt': 0.0, 'yaw': 160.50494384765625, 'pitch': -1.4838300943374634, 'roll': 0.7041568160057068, 'speed': 0.0}
2023-03-26 23:34:32,714 -[mav_srv] - INFO - -------GeoTag------------
2023-03-26 23:34:32,715 -[mav_srv] - INFO - {'time': 244057577, 'lat': 0.0, 'lon': 0.0, 'alt': 0.0, 'yaw': 160.47567749023438, 'pitch': -1.4901244640350342, 'roll': 0.6949843764305115, 'speed': 0.0}
2023-03-26 23:34:33,716 -[mav_srv] - INFO - -------GeoTag------------
2023-03-26 23:34:33,717 -[mav_srv] - INFO - {'time': 245058575, 'lat': 0.0, 'lon': 0.0, 'alt': 0.0, 'yaw': 160.49903869628906, 'pitch': -1.4749906063079834, 'roll': 0.7185261249542236, 'speed': 0.0}
2023-03-26 23:34:34,718 -[mav_srv] - INFO - -------GeoTag------------
2023-03-26 23:34:34,720 -[mav_srv] - INFO - {'time': 246057576, 'lat': 0.0, 'lon': 0.0, 'alt': 0.0, 'yaw': 160.5154571533203, 'pitch': -1.4753588438034058, 'roll': 0.7167553901672363, 'speed': 0.0}
2023-03-26 23:34:35,721 -[mav_srv] - INFO - -------GeoTag------------
2023-03-26 23:34:35,721 -[mav_srv] - INFO - {'time': 247057586, 'lat': 0.0, 'lon': 0.0, 'alt': 0.0, 'yaw': 160.5237579345703, 'pitch': -1.465851068496704, 'roll': 0.7363566160202026, 'speed': 0.0}
2023-03-26 23:34:36,723 -[mav_srv] - INFO - -------GeoTag------------
2023-03-26 23:34:36,723 -[mav_srv] - INFO - {'time': 248057575, 'lat': 0.0, 'lon': 0.0, 'alt': 0.0, 'yaw': 160.55706787109375, 'pitch': -1.4659440517425537, 'roll': 0.7343135476112366, 'speed': 0.0}
2023-03-26 23:34:37,730 -[mav_srv] - INFO - -------GeoTag------------
2023-03-26 23:34:37,730 -[mav_srv] - INFO - {'time': 249057581, 'lat': 0.0, 'lon': 0.0, 'alt': 0.0, 'yaw': 160.55966186523438, 'pitch': -1.4652060270309448, 'roll': 0.7378929853439331, 'speed': 0.0}
2023-03-26 23:34:38,732 -[mav_srv] - INFO - -------GeoTag------------
2023-03-26 23:34:38,732 -[mav_srv] - INFO - {'time': 250058581, 'lat': 0.0, 'lon': 0.0, 'alt': 0.0, 'yaw': 160.57887268066406, 'pitch': -1.4655859470367432, 'roll': 0.733352541923523, 'speed': 0.0}
2023-03-26 23:34:39,734 -[mav_srv] - INFO - -------GeoTag------------
2023-03-26 23:34:39,734 -[mav_srv] - INFO - {'time': 251058575, 'lat': 0.0, 'lon': 0.0, 'alt': 0.0, 'yaw': 160.60580444335938, 'pitch': -1.4653267860412598, 'roll': 0.7301983833312988, 'speed': 0.0}
2023-03-26 23:34:40,735 -[mav_srv] - INFO - -------GeoTag------------
2023-03-26 23:34:40,736 -[mav_srv] - INFO - {'time': 252057575, 'lat': 0.0, 'lon': 0.0, 'alt': 0.0, 'yaw': 160.6090545654297, 'pitch': -1.4613037109375, 'roll': 0.730681300163269, 'speed': 0.0}
2023-03-26 23:34:41,737 -[mav_srv] - INFO - -------GeoTag------------
2023-03-26 23:34:41,738 -[mav_srv] - INFO - {'time': 253058575, 'lat': 0.0, 'lon': 0.0, 'alt': 0.0, 'yaw': 160.6239471435547, 'pitch': -1.4552111625671387, 'roll': 0.742121696472168, 'speed': 0.0}
2023-03-26 23:34:42,741 -[mav_srv] - INFO - -------GeoTag------------
2023-03-26 23:34:42,742 -[mav_srv] - INFO - {'time': 254057575, 'lat': 0.0, 'lon': 0.0, 'alt': 0.0, 'yaw': 160.62799072265625, 'pitch': -1.4566926956176758, 'roll': 0.7415301203727722, 'speed': 0.0}
2023-03-26 23:34:43,743 -[mav_srv] - INFO - -------GeoTag------------
2023-03-26 23:34:43,743 -[mav_srv] - INFO - {'time': 255058574, 'lat': 0.0, 'lon': 0.0, 'alt': 0.0, 'yaw': 160.6284942626953, 'pitch': -1.4572579860687256, 'roll': 0.7455540895462036, 'speed': 0.0}
2023-03-26 23:34:44,745 -[mav_srv] - INFO - -------GeoTag------------
2023-03-26 23:34:44,745 -[mav_srv] - INFO - {'time': 256057582, 'lat': 0.0, 'lon': 0.0, 'alt': 0.0, 'yaw': 160.63925170898438, 'pitch': -1.4591072797775269, 'roll': 0.7429548501968384, 'speed': 0.0}
2023-03-26 23:34:45,748 -[mav_srv] - INFO - -------GeoTag------------
2023-03-26 23:34:45,748 -[mav_srv] - INFO - {'time': 257056619, 'lat': 0.0, 'lon': 0.0, 'alt': 0.0, 'yaw': 160.64186096191406, 'pitch': -1.4580214023590088, 'roll': 0.7398499846458435, 'speed': 0.0}
2023-03-26 23:34:46,750 -[mav_srv] - INFO - -------GeoTag------------
2023-03-26 23:34:46,751 -[mav_srv] - INFO - {'time': 258057048, 'lat': 0.0, 'lon': 0.0, 'alt': 0.0, 'yaw': 160.6511688232422, 'pitch': -1.4644442796707153, 'roll': 0.7341824769973755, 'speed': 0.0}
2023-03-26 23:34:47,752 -[mav_srv] - INFO - -------GeoTag------------
2023-03-26 23:34:47,752 -[mav_srv] - INFO - {'time': 259056607, 'lat': 0.0, 'lon': 0.0, 'alt': 0.0, 'yaw': 160.67193603515625, 'pitch': -1.4658973217010498, 'roll': 0.7330766916275024, 'speed': 0.0}
2023-03-26 23:34:48,754 -[mav_srv] - INFO - -------GeoTag------------
2023-03-26 23:34:48,755 -[mav_srv] - INFO - {'time': 260056607, 'lat': 0.0, 'lon': 0.0, 'alt': 0.0, 'yaw': 160.67991638183594, 'pitch': -1.4665791988372803, 'roll': 0.7340680360794067, 'speed': 0.0}
2023-03-26 23:34:49,756 -[mav_srv] - INFO - -------GeoTag------------
2023-03-26 23:34:49,757 -[mav_srv] - INFO - {'time': 261057577, 'lat': 0.0, 'lon': 0.0, 'alt': 0.0, 'yaw': 160.69786071777344, 'pitch': -1.4658468961715698, 'roll': 0.7380281090736389, 'speed': 0.0}
2023-03-26 23:34:50,759 -[mav_srv] - INFO - -------GeoTag------------
2023-03-26 23:34:50,759 -[mav_srv] - INFO - {'time': 262057582, 'lat': 0.0, 'lon': 0.0, 'alt': 0.0, 'yaw': 160.7140350341797, 'pitch': -1.463202714920044, 'roll': 0.7427058815956116, 'speed': 0.0}
2023-03-26 23:34:51,760 -[mav_srv] - INFO - -------GeoTag------------
2023-03-26 23:34:51,761 -[mav_srv] - INFO - {'time': 263058817, 'lat': 0.0, 'lon': 0.0, 'alt': 0.0, 'yaw': 160.7019805908203, 'pitch': -1.4709982872009277, 'roll': 0.7375767827033997, 'speed': 0.0}
2023-03-26 23:34:52,762 -[mav_srv] - INFO - -------GeoTag------------
2023-03-26 23:34:52,763 -[mav_srv] - INFO - {'time': 264059592, 'lat': 0.0, 'lon': 0.0, 'alt': 0.0, 'yaw': 160.72242736816406, 'pitch': -1.4652246236801147, 'roll': 0.739734947681427, 'speed': 0.0}
2023-03-26 23:34:53,764 -[mav_srv] - INFO - -------GeoTag------------
2023-03-26 23:34:53,764 -[mav_srv] - INFO - {'time': 265059582, 'lat': 0.0, 'lon': 0.0, 'alt': 0.0, 'yaw': 160.71615600585938, 'pitch': -1.464524507522583, 'roll': 0.7385671138763428, 'speed': 0.0}
2023-03-26 23:34:54,766 -[mav_srv] - INFO - -------GeoTag------------
2023-03-26 23:34:54,766 -[mav_srv] - INFO - {'time': 266057575, 'lat': 0.0, 'lon': 0.0, 'alt': 0.0, 'yaw': 160.7232208251953, 'pitch': -1.462301254272461, 'roll': 0.7424861788749695, 'speed': 0.0}
2023-03-26 23:34:55,768 -[mav_srv] - INFO - -------GeoTag------------
2023-03-26 23:34:55,768 -[mav_srv] - INFO - {'time': 267057634, 'lat': 0.0, 'lon': 0.0, 'alt': 0.0, 'yaw': 160.73973083496094, 'pitch': -1.458453893661499, 'roll': 0.7396936416625977, 'speed': 0.0}
2023-03-26 23:34:56,769 -[mav_srv] - INFO - -------GeoTag------------
2023-03-26 23:34:56,769 -[mav_srv] - INFO - {'time': 268057574, 'lat': 0.0, 'lon': 0.0, 'alt': 0.0, 'yaw': 160.7223663330078, 'pitch': -1.4592821598052979, 'roll': 0.7384500503540039, 'speed': 0.0}
2023-03-26 23:34:57,776 -[mav_srv] - INFO - -------GeoTag------------
2023-03-26 23:34:57,776 -[mav_srv] - INFO - {'time': 269057577, 'lat': 0.0, 'lon': 0.0, 'alt': 0.0, 'yaw': 160.73651123046875, 'pitch': -1.4600223302841187, 'roll': 0.7368159294128418, 'speed': 0.0}
2023-03-26 23:34:58,777 -[mav_srv] - INFO - -------GeoTag------------
2023-03-26 23:34:58,778 -[mav_srv] - INFO - {'time': 270056692, 'lat': 0.0, 'lon': 0.0, 'alt': 0.0, 'yaw': 160.75244140625, 'pitch': -1.461668848991394, 'roll': 0.7381995916366577, 'speed': 0.0}
2023-03-26 23:34:59,780 -[mav_srv] - INFO - -------GeoTag------------
2023-03-26 23:34:59,780 -[mav_srv] - INFO - {'time': 271056608, 'lat': 0.0, 'lon': 0.0, 'alt': 0.0, 'yaw': 160.74264526367188, 'pitch': -1.4610004425048828, 'roll': 0.7396818995475769, 'speed': 0.0}
2023-03-26 23:35:00,781 -[mav_srv] - INFO - -------GeoTag------------
2023-03-26 23:35:00,782 -[mav_srv] - INFO - {'time': 272057576, 'lat': 0.0, 'lon': 0.0, 'alt': 0.0, 'yaw': 160.76150512695312, 'pitch': -1.4597070217132568, 'roll': 0.739508867263794, 'speed': 0.0}
2023-03-26 23:35:01,784 -[mav_srv] - INFO - -------GeoTag------------
2023-03-26 23:35:01,785 -[mav_srv] - INFO - {'time': 273057587, 'lat': 0.0, 'lon': 0.0, 'alt': 0.0, 'yaw': 160.75732421875, 'pitch': -1.4580906629562378, 'roll': 0.7385134100914001, 'speed': 0.0}
