2023-03-27 00:02:54,699 -[mav_srv] - INFO - {'time': 480247605, 'lat': 0.0, 'lon': 0.0, 'alt': 0.0, 'yaw': 17.50580406188965, 'pitch': -1.8713788986206055, 'roll': 0.6970168948173523, 'speed': 0.0}
2023-03-27 00:02:55,704 -[mav_srv] - INFO - -------GeoTag------------
2023-03-27 00:02:55,705 -[mav_srv] - INFO - {'time': 481246575, 'lat': 0.0, 'lon': 0.0, 'alt': 0.0, 'yaw': 17.51226234436035, 'pitch': -1.8743677139282227, 'roll': 0.6770944595336914, 'speed': 0.0}
2023-03-27 00:02:56,707 -[mav_srv] - INFO - -------GeoTag------------
2023-03-27 00:02:56,707 -[mav_srv] - INFO - {'time': 482246574, 'lat': 0.0, 'lon': 0.0, 'alt': 0.0, 'yaw': 17.5259952545166, 'pitch': -1.8721351623535156, 'roll': 0.654981255531311, 'speed': 0.0}
2023-03-27 00:02:57,710 -[mav_srv] - INFO - -------GeoTag------------
2023-03-27 00:02:57,711 -[mav_srv] - INFO - {'time': 483247632, 'lat': 0.0, 'lon': 0.0, 'alt': 0.0, 'yaw': 17.549856185913086, 'pitch': -1.8557676076889038, 'roll': 0.6660144925117493, 'speed': 0.0}
2023-03-27 00:02:58,712 -[mav_srv] - INFO - -------GeoTag------------
2023-03-27 00:02:58,712 -[mav_srv] - INFO - {'time': 484246591, 'lat': 0.0, 'lon': 0.0, 'alt': 0.0, 'yaw': 17.51636505126953, 'pitch': -1.8683831691741943, 'roll': 0.6888755559921265, 'speed': 0.0}
2023-03-27 00:02:59,713 -[mav_srv] - INFO - -------GeoTag------------
2023-03-27 00:02:59,714 -[mav_srv] - INFO - {'time': 485246576, 'lat': 0.0, 'lon': 0.0, 'alt': 0.0, 'yaw': 17.523653030395508, 'pitch': -1.862113356590271, 'roll': 0.7006010413169861, 'speed': 0.0}
2023-03-27 00:03:00,716 -[mav_srv] - INFO - -------GeoTag------------
2023-03-27 00:03:00,716 -[mav_srv] - INFO - {'time': 486246576, 'lat': 0.0, 'lon': 0.0, 'alt': 0.0, 'yaw': 17.52765655517578, 'pitch': -1.8468185663223267, 'roll': 0.6938745975494385, 'speed': 0.0}
2023-03-27 00:03:01,717 -[mav_srv] - INFO - -------GeoTag------------
2023-03-27 00:03:01,724 -[mav_srv] - INFO - {'time': 487246702, 'lat': 0.0, 'lon': 0.0, 'alt': 0.0, 'yaw': 17.51535415649414, 'pitch': -1.8775168657302856, 'roll': 0.7183938026428223, 'speed': 0.0}
2023-03-27 00:03:02,726 -[mav_srv] - INFO - -------GeoTag------------
2023-03-27 00:03:02,726 -[mav_srv] - INFO - {'time': 488246575, 'lat': 0.0, 'lon': 0.0, 'alt': 0.0, 'yaw': 17.545452117919922, 'pitch': -1.8891254663467407, 'roll': 0.7276844382286072, 'speed': 0.0}
2023-03-27 00:03:03,727 -[mav_srv] - INFO - -------GeoTag------------
2023-03-27 00:03:03,728 -[mav_srv] - INFO - {'time': 489246574, 'lat': 0.0, 'lon': 0.0, 'alt': 0.0, 'yaw': 17.55784797668457, 'pitch': -1.883635401725769, 'roll': 0.7079069018363953, 'speed': 0.0}
2023-03-27 00:03:04,731 -[mav_srv] - INFO - -------GeoTag------------
2023-03-27 00:03:04,732 -[mav_srv] - INFO - {'time': 490246575, 'lat': 0.0, 'lon': 0.0, 'alt': 0.0, 'yaw': 17.54681396484375, 'pitch': -1.8603910207748413, 'roll': 0.6968201994895935, 'speed': 0.0}
2023-03-27 00:03:05,737 -[mav_srv] - INFO - -------GeoTag------------
2023-03-27 00:03:05,739 -[mav_srv] - INFO - {'time': 491246576, 'lat': 0.0, 'lon': 0.0, 'alt': 0.0, 'yaw': 17.562049865722656, 'pitch': -1.884933590888977, 'roll': 0.701027512550354, 'speed': 0.0}
2023-03-27 00:03:06,742 -[mav_srv] - INFO - -------GeoTag------------
2023-03-27 00:03:06,743 -[mav_srv] - INFO - {'time': 492246576, 'lat': 0.0, 'lon': 0.0, 'alt': 0.0, 'yaw': 17.567047119140625, 'pitch': -1.901576042175293, 'roll': 0.6843351125717163, 'speed': 0.0}
2023-03-27 00:03:07,744 -[mav_srv] - INFO - -------GeoTag------------
2023-03-27 00:03:07,745 -[mav_srv] - INFO - {'time': 493247968, 'lat': 0.0, 'lon': 0.0, 'alt': 0.0, 'yaw': 17.581321716308594, 'pitch': -1.8806308507919312, 'roll': 0.6728793978691101, 'speed': 0.0}
2023-03-27 00:03:08,750 -[mav_srv] - INFO - -------GeoTag------------
2023-03-27 00:03:08,751 -[mav_srv] - INFO - {'time': 494245590, 'lat': 0.0, 'lon': 0.0, 'alt': 0.0, 'yaw': 17.5847110748291, 'pitch': -1.8606553077697754, 'roll': 0.6858351826667786, 'speed': 0.0}
2023-03-27 00:03:09,753 -[mav_srv] - INFO - -------GeoTag------------
2023-03-27 00:03:09,754 -[mav_srv] - INFO - {'time': 495247697, 'lat': 0.0, 'lon': 0.0, 'alt': 0.0, 'yaw': 17.552364349365234, 'pitch': -1.8503284454345703, 'roll': 0.7061308026313782, 'speed': 0.0}
2023-03-27 00:03:10,756 -[mav_srv] - INFO - -------GeoTag------------
2023-03-27 00:03:10,756 -[mav_srv] - INFO - {'time': 496245713, 'lat': 0.0, 'lon': 0.0, 'alt': 0.0, 'yaw': 17.541366577148438, 'pitch': -1.860304355621338, 'roll': 0.6937605142593384, 'speed': 0.0}
2023-03-27 00:03:11,757 -[mav_srv] - INFO - -------GeoTag------------
2023-03-27 00:03:11,758 -[mav_srv] - INFO - {'time': 497246575, 'lat': 0.0, 'lon': 0.0, 'alt': 0.0, 'yaw': 17.55042266845703, 'pitch': -1.8568205833435059, 'roll': 0.6855778098106384, 'speed': 0.0}
2023-03-27 00:03:12,759 -[mav_srv] - INFO - -------GeoTag------------
2023-03-27 00:03:12,759 -[mav_srv] - INFO - {'time': 498245574, 'lat': 0.0, 'lon': 0.0, 'alt': 0.0, 'yaw': 17.528972625732422, 'pitch': -1.865615963935852, 'roll': 0.6912879943847656, 'speed': 0.0}
2023-03-27 00:03:13,760 -[mav_srv] - INFO - -------GeoTag------------
2023-03-27 00:03:13,760 -[mav_srv] - INFO - {'time': 499245612, 'lat': 0.0, 'lon': 0.0, 'alt': 0.0, 'yaw': 17.542755126953125, 'pitch': -1.8595091104507446, 'roll': 0.7001081109046936, 'speed': 0.0}
2023-03-27 00:03:14,761 -[mav_srv] - INFO - -------GeoTag------------
2023-03-27 00:03:14,762 -[mav_srv] - INFO - {'time': 500245934, 'lat': 0.0, 'lon': 0.0, 'alt': 0.0, 'yaw': 17.498416900634766, 'pitch': -1.8514189720153809, 'roll': 0.6817177534103394, 'speed': 0.0}
2023-03-27 00:03:15,762 -[mav_srv] - INFO - -------GeoTag------------
2023-03-27 00:03:15,763 -[mav_srv] - INFO - {'time': 501246575, 'lat': 0.0, 'lon': 0.0, 'alt': 0.0, 'yaw': 17.48482894897461, 'pitch': -1.8364508152008057, 'roll': 0.6830213069915771, 'speed': 0.0}
2023-03-27 00:03:16,764 -[mav_srv] - INFO - -------GeoTag------------
2023-03-27 00:03:16,764 -[mav_srv] - INFO - {'time': 502245574, 'lat': 0.0, 'lon': 0.0, 'alt': 0.0, 'yaw': 17.48353385925293, 'pitch': -1.8451932668685913, 'roll': 0.7015276551246643, 'speed': 0.0}
2023-03-27 00:03:17,773 -[mav_srv] - INFO - -------GeoTag------------
2023-03-27 00:03:17,773 -[mav_srv] - INFO - {'time': 503245581, 'lat': 0.0, 'lon': 0.0, 'alt': 0.0, 'yaw': 17.451950073242188, 'pitch': -1.8297147750854492, 'roll': 0.6960750818252563, 'speed': 0.0}
2023-03-27 00:03:18,775 -[mav_srv] - INFO - -------GeoTag------------
2023-03-27 00:03:18,776 -[mav_srv] - INFO - {'time': 504245574, 'lat': 0.0, 'lon': 0.0, 'alt': 0.0, 'yaw': 17.471160888671875, 'pitch': -1.8297288417816162, 'roll': 0.6926900148391724, 'speed': 0.0}
2023-03-27 00:03:19,777 -[mav_srv] - INFO - -------GeoTag------------
2023-03-27 00:03:19,778 -[mav_srv] - INFO - {'time': 505246581, 'lat': 0.0, 'lon': 0.0, 'alt': 0.0, 'yaw': 17.451274871826172, 'pitch': -1.8391568660736084, 'roll': 0.7269759774208069, 'speed': 0.0}
2023-03-27 00:03:20,780 -[mav_srv] - INFO - -------GeoTag------------
2023-03-27 00:03:20,780 -[mav_srv] - INFO - {'time': 506244575, 'lat': 0.0, 'lon': 0.0, 'alt': 0.0, 'yaw': 17.429595947265625, 'pitch': -1.8441052436828613, 'roll': 0.7402769327163696, 'speed': 0.0}
2023-03-27 00:03:21,782 -[mav_srv] - INFO - -------GeoTag------------
2023-03-27 00:03:21,782 -[mav_srv] - INFO - {'time': 507244576, 'lat': 0.0, 'lon': 0.0, 'alt': 0.0, 'yaw': 17.447486877441406, 'pitch': -1.8469743728637695, 'roll': 0.7103131413459778, 'speed': 0.0}
2023-03-27 00:03:22,789 -[mav_srv] - INFO - -------GeoTag------------
2023-03-27 00:03:22,790 -[mav_srv] - INFO - {'time': 508244576, 'lat': 0.0, 'lon': 0.0, 'alt': 0.0, 'yaw': 17.443880081176758, 'pitch': -1.858974814414978, 'roll': 0.7101716995239258, 'speed': 0.0}
2023-03-27 00:03:23,792 -[mav_srv] - INFO - -------GeoTag------------
2023-03-27 00:03:23,792 -[mav_srv] - INFO - {'time': 509244608, 'lat': 0.0, 'lon': 0.0, 'alt': 0.0, 'yaw': 17.442298889160156, 'pitch': -1.8636505603790283, 'roll': 0.7130605578422546, 'speed': 0.0}
2023-03-27 00:03:24,793 -[mav_srv] - INFO - -------GeoTag------------
2023-03-27 00:03:24,794 -[mav_srv] - INFO - {'time': 510244575, 'lat': 0.0, 'lon': 0.0, 'alt': 0.0, 'yaw': 17.453954696655273, 'pitch': -1.8652511835098267, 'roll': 0.6783754825592041, 'speed': 0.0}
2023-03-27 00:03:25,795 -[mav_srv] - INFO - -------GeoTag------------
2023-03-27 00:03:25,796 -[mav_srv] - INFO - {'time': 511244593, 'lat': 0.0, 'lon': 0.0, 'alt': 0.0, 'yaw': 17.420886993408203, 'pitch': -1.8553050756454468, 'roll': 0.6616394519805908, 'speed': 0.0}
2023-03-27 00:03:26,799 -[mav_srv] - INFO - -------GeoTag------------
2023-03-27 00:03:26,799 -[mav_srv] - INFO - {'time': 512245582, 'lat': 0.0, 'lon': 0.0, 'alt': 0.0, 'yaw': 17.42535400390625, 'pitch': -1.879921555519104, 'roll': 0.6516390442848206, 'speed': 0.0}
2023-03-27 00:03:27,807 -[mav_srv] - INFO - -------GeoTag------------
2023-03-27 00:03:27,807 -[mav_srv] - INFO - {'time': 513245114, 'lat': 0.0, 'lon': 0.0, 'alt': 0.0, 'yaw': 17.422561645507812, 'pitch': -1.8717643022537231, 'roll': 0.6612573862075806, 'speed': 0.0}
2023-03-27 00:03:28,809 -[mav_srv] - INFO - -------GeoTag------------
2023-03-27 00:03:28,810 -[mav_srv] - INFO - {'time': 514244575, 'lat': 0.0, 'lon': 0.0, 'alt': 0.0, 'yaw': 17.41709327697754, 'pitch': -1.8540140390396118, 'roll': 0.6514727473258972, 'speed': 0.0}
2023-03-27 00:03:29,812 -[mav_srv] - INFO - -------GeoTag------------
2023-03-27 00:03:29,813 -[mav_srv] - INFO - {'time': 515244598, 'lat': 0.0, 'lon': 0.0, 'alt': 0.0, 'yaw': 17.425514221191406, 'pitch': -1.8535945415496826, 'roll': 0.6834924221038818, 'speed': 0.0}
2023-03-27 00:03:30,815 -[mav_srv] - INFO - -------GeoTag------------
2023-03-27 00:03:30,816 -[mav_srv] - INFO - {'time': 516244576, 'lat': 0.0, 'lon': 0.0, 'alt': 0.0, 'yaw': 17.410621643066406, 'pitch': -1.866524338722229, 'roll': 0.7289936542510986, 'speed': 0.0}
2023-03-27 00:03:31,818 -[mav_srv] - INFO - -------GeoTag------------
2023-03-27 00:03:31,818 -[mav_srv] - INFO - {'time': 517244596, 'lat': 0.0, 'lon': 0.0, 'alt': 0.0, 'yaw': 17.402145385742188, 'pitch': -1.866289734840393, 'roll': 0.7175613045692444, 'speed': 0.0}
2023-03-27 00:03:32,820 -[mav_srv] - INFO - -------GeoTag------------
2023-03-27 00:03:32,821 -[mav_srv] - INFO - {'time': 518244575, 'lat': 0.0, 'lon': 0.0, 'alt': 0.0, 'yaw': 17.41990852355957, 'pitch': -1.854396939277649, 'roll': 0.6941773891448975, 'speed': 0.0}
2023-03-27 00:03:33,822 -[mav_srv] - INFO - -------GeoTag------------
2023-03-27 00:03:33,822 -[mav_srv] - INFO - {'time': 519445590, 'lat': 0.0, 'lon': 0.0, 'alt': 0.0, 'yaw': 17.392234802246094, 'pitch': -1.8713325262069702, 'roll': 0.709243655204773, 'speed': 0.0}
2023-03-27 00:03:34,824 -[mav_srv] - INFO - -------GeoTag------------
2023-03-27 00:03:34,824 -[mav_srv] - INFO - {'time': 520443576, 'lat': 0.0, 'lon': 0.0, 'alt': 0.0, 'yaw': 17.40985679626465, 'pitch': -1.860686182975769, 'roll': 0.6991910338401794, 'speed': 0.0}
2023-03-27 00:03:35,826 -[mav_srv] - INFO - -------GeoTag------------
2023-03-27 00:03:35,826 -[mav_srv] - INFO - {'time': 521443655, 'lat': 0.0, 'lon': 0.0, 'alt': 0.0, 'yaw': 17.387720108032227, 'pitch': -1.8449475765228271, 'roll': 0.6777063012123108, 'speed': 0.0}
2023-03-27 00:03:36,827 -[mav_srv] - INFO - -------GeoTag------------
2023-03-27 00:03:36,828 -[mav_srv] - INFO - {'time': 522444575, 'lat': 0.0, 'lon': 0.0, 'alt': 0.0, 'yaw': 17.366432189941406, 'pitch': -1.8586421012878418, 'roll': 0.677182137966156, 'speed': 0.0}
2023-03-27 00:03:37,837 -[mav_srv] - INFO - -------GeoTag------------
2023-03-27 00:03:37,837 -[mav_srv] - INFO - {'time': 523444574, 'lat': 0.0, 'lon': 0.0, 'alt': 0.0, 'yaw': 17.375411987304688, 'pitch': -1.8672236204147339, 'roll': 0.6927717328071594, 'speed': 0.0}
2023-03-27 00:03:38,839 -[mav_srv] - INFO - -------GeoTag------------
2023-03-27 00:03:38,839 -[mav_srv] - INFO - {'time': 524445615, 'lat': 0.0, 'lon': 0.0, 'alt': 0.0, 'yaw': 17.375192642211914, 'pitch': -1.84688138961792, 'roll': 0.6873952150344849, 'speed': 0.0}
2023-03-27 00:03:39,841 -[mav_srv] - INFO - -------GeoTag------------
2023-03-27 00:03:39,842 -[mav_srv] - INFO - {'time': 525443582, 'lat': 0.0, 'lon': 0.0, 'alt': 0.0, 'yaw': 17.393814086914062, 'pitch': -1.8541615009307861, 'roll': 0.6907294392585754, 'speed': 0.0}
2023-03-27 00:03:40,843 -[mav_srv] - INFO - -------GeoTag------------
2023-03-27 00:03:40,843 -[mav_srv] - INFO - {'time': 526444577, 'lat': 0.0, 'lon': 0.0, 'alt': 0.0, 'yaw': 17.389623641967773, 'pitch': -1.866664171218872, 'roll': 0.6956947445869446, 'speed': 0.0}
2023-03-27 00:03:41,845 -[mav_srv] - INFO - -------GeoTag------------
2023-03-27 00:03:41,852 -[mav_srv] - INFO - {'time': 527443591, 'lat': 0.0, 'lon': 0.0, 'alt': 0.0, 'yaw': 17.38320541381836, 'pitch': -1.8638209104537964, 'roll': 0.7033262848854065, 'speed': 0.0}
2023-03-27 00:03:42,854 -[mav_srv] - INFO - -------GeoTag------------
2023-03-27 00:03:42,855 -[mav_srv] - INFO - {'time': 528445575, 'lat': 0.0, 'lon': 0.0, 'alt': 0.0, 'yaw': 17.39527702331543, 'pitch': -1.8684662580490112, 'roll': 0.6668026447296143, 'speed': 0.0}
2023-03-27 00:03:43,856 -[mav_srv] - INFO - -------GeoTag------------
2023-03-27 00:03:43,856 -[mav_srv] - INFO - {'time': 529444574, 'lat': 0.0, 'lon': 0.0, 'alt': 0.0, 'yaw': 17.398509979248047, 'pitch': -1.8892321586608887, 'roll': 0.6834736466407776, 'speed': 0.0}
2023-03-27 00:03:44,859 -[mav_srv] - INFO - -------GeoTag------------
2023-03-27 00:03:44,860 -[mav_srv] - INFO - {'time': 530443602, 'lat': 0.0, 'lon': 0.0, 'alt': 0.0, 'yaw': 17.397451400756836, 'pitch': -1.8967857360839844, 'roll': 0.6702051758766174, 'speed': 0.0}
2023-03-27 00:03:45,861 -[mav_srv] - INFO - -------GeoTag------------
2023-03-27 00:03:45,862 -[mav_srv] - INFO - {'time': 531443576, 'lat': 0.0, 'lon': 0.0, 'alt': 0.0, 'yaw': 17.40996742248535, 'pitch': -1.8667181730270386, 'roll': 0.6629762053489685, 'speed': 0.0}
2023-03-27 00:03:46,864 -[mav_srv] - INFO - -------GeoTag------------
2023-03-27 00:03:46,865 -[mav_srv] - INFO - {'time': 532443576, 'lat': 0.0, 'lon': 0.0, 'alt': 0.0, 'yaw': 17.376781463623047, 'pitch': -1.8524572849273682, 'roll': 0.6606451272964478, 'speed': 0.0}
2023-03-27 00:03:47,868 -[mav_srv] - INFO - -------GeoTag------------
2023-03-27 00:03:47,868 -[mav_srv] - INFO - {'time': 533444577, 'lat': 0.0, 'lon': 0.0, 'alt': 0.0, 'yaw': 17.384878158569336, 'pitch': -1.8514435291290283, 'roll': 0.6770175695419312, 'speed': 0.0}
2023-03-27 00:03:48,870 -[mav_srv] - INFO - -------GeoTag------------
2023-03-27 00:03:48,870 -[mav_srv] - INFO - {'time': 534443575, 'lat': 0.0, 'lon': 0.0, 'alt': 0.0, 'yaw': 17.403820037841797, 'pitch': -1.8509372472763062, 'roll': 0.6782243251800537, 'speed': 0.0}
2023-03-27 00:03:49,873 -[mav_srv] - INFO - -------GeoTag------------
2023-03-27 00:03:49,873 -[mav_srv] - INFO - {'time': 535444575, 'lat': 0.0, 'lon': 0.0, 'alt': 0.0, 'yaw': 17.395038604736328, 'pitch': -1.8192863464355469, 'roll': 0.6736980676651001, 'speed': 0.0}
2023-03-27 00:03:50,875 -[mav_srv] - INFO - -------GeoTag------------
2023-03-27 00:03:50,875 -[mav_srv] - INFO - {'time': 536445574, 'lat': 0.0, 'lon': 0.0, 'alt': 0.0, 'yaw': 17.404943466186523, 'pitch': -1.8108363151550293, 'roll': 0.6716938018798828, 'speed': 0.0}
2023-03-27 00:03:51,877 -[mav_srv] - INFO - -------GeoTag------------
2023-03-27 00:03:51,878 -[mav_srv] - INFO - {'time': 537443575, 'lat': 0.0, 'lon': 0.0, 'alt': 0.0, 'yaw': 17.386722564697266, 'pitch': -1.8232266902923584, 'roll': 0.6837024092674255, 'speed': 0.0}
2023-03-27 00:03:52,879 -[mav_srv] - INFO - -------GeoTag------------
2023-03-27 00:03:52,879 -[mav_srv] - INFO - {'time': 538444132, 'lat': 0.0, 'lon': 0.0, 'alt': 0.0, 'yaw': 17.378870010375977, 'pitch': -1.8416024446487427, 'roll': 0.6709070801734924, 'speed': 0.0}
2023-03-27 00:03:53,882 -[mav_srv] - INFO - -------GeoTag------------
2023-03-27 00:03:53,883 -[mav_srv] - INFO - {'time': 539445581, 'lat': 0.0, 'lon': 0.0, 'alt': 0.0, 'yaw': 17.39876365661621, 'pitch': -1.837705373764038, 'roll': 0.6702672839164734, 'speed': 0.0}
2023-03-27 00:03:54,885 -[mav_srv] - INFO - -------GeoTag------------
2023-03-27 00:03:54,885 -[mav_srv] - INFO - {'time': 540444575, 'lat': 0.0, 'lon': 0.0, 'alt': 0.0, 'yaw': 17.40220832824707, 'pitch': -1.8531006574630737, 'roll': 0.6830692291259766, 'speed': 0.0}
2023-03-27 00:03:55,888 -[mav_srv] - INFO - -------GeoTag------------
2023-03-27 00:03:55,888 -[mav_srv] - INFO - {'time': 541443592, 'lat': 0.0, 'lon': 0.0, 'alt': 0.0, 'yaw': 17.405879974365234, 'pitch': -1.8458929061889648, 'roll': 0.6866471767425537, 'speed': 0.0}
2023-03-27 00:03:56,891 -[mav_srv] - INFO - -------GeoTag------------
2023-03-27 00:03:56,898 -[mav_srv] - INFO - {'time': 542443575, 'lat': 0.0, 'lon': 0.0, 'alt': 0.0, 'yaw': 17.403759002685547, 'pitch': -1.8124215602874756, 'roll': 0.6666190028190613, 'speed': 0.0}
2023-03-27 00:03:57,900 -[mav_srv] - INFO - -------GeoTag------------
2023-03-27 00:03:57,901 -[mav_srv] - INFO - {'time': 543444582, 'lat': 0.0, 'lon': 0.0, 'alt': 0.0, 'yaw': 17.376359939575195, 'pitch': -1.8380423784255981, 'roll': 0.6764139533042908, 'speed': 0.0}
2023-03-27 00:03:58,902 -[mav_srv] - INFO - -------GeoTag------------
2023-03-27 00:03:58,902 -[mav_srv] - INFO - {'time': 544443576, 'lat': 0.0, 'lon': 0.0, 'alt': 0.0, 'yaw': 17.380220413208008, 'pitch': -1.8787734508514404, 'roll': 0.6863647103309631, 'speed': 0.0}
2023-03-27 00:03:59,903 -[mav_srv] - INFO - -------GeoTag------------
2023-03-27 00:03:59,903 -[mav_srv] - INFO - {'time': 545443606, 'lat': 0.0, 'lon': 0.0, 'alt': 0.0, 'yaw': 17.402976989746094, 'pitch': -1.880170226097107, 'roll': 0.6833632588386536, 'speed': 0.0}
2023-03-27 00:04:00,905 -[mav_srv] - INFO - -------GeoTag------------
2023-03-27 00:04:00,906 -[mav_srv] - INFO - {'time': 546443575, 'lat': 0.0, 'lon': 0.0, 'alt': 0.0, 'yaw': 17.41519546508789, 'pitch': -1.8398640155792236, 'roll': 0.6794191598892212, 'speed': 0.0}
2023-03-27 00:04:01,907 -[mav_srv] - INFO - -------GeoTag------------
2023-03-27 00:04:01,908 -[mav_srv] - INFO - {'time': 547443623, 'lat': 0.0, 'lon': 0.0, 'alt': 0.0, 'yaw': 17.432971954345703, 'pitch': -1.8527456521987915, 'roll': 0.6800665855407715, 'speed': 0.0}
2023-03-27 00:04:02,915 -[mav_srv] - INFO - -------GeoTag------------
2023-03-27 00:04:02,916 -[mav_srv] - INFO - {'time': 548443575, 'lat': 0.0, 'lon': 0.0, 'alt': 0.0, 'yaw': 17.407440185546875, 'pitch': -1.8624533414840698, 'roll': 0.6960741877555847, 'speed': 0.0}
2023-03-27 00:04:03,918 -[mav_srv] - INFO - -------GeoTag------------
2023-03-27 00:04:03,918 -[mav_srv] - INFO - {'time': 549442575, 'lat': 0.0, 'lon': 0.0, 'alt': 0.0, 'yaw': 17.41102409362793, 'pitch': -1.850583553314209, 'roll': 0.661185622215271, 'speed': 0.0}
2023-03-27 00:04:04,919 -[mav_srv] - INFO - -------GeoTag------------
2023-03-27 00:04:04,920 -[mav_srv] - INFO - {'time': 550444575, 'lat': 0.0, 'lon': 0.0, 'alt': 0.0, 'yaw': 17.423368453979492, 'pitch': -1.856986403465271, 'roll': 0.6423181295394897, 'speed': 0.0}
2023-03-27 00:04:05,921 -[mav_srv] - INFO - -------GeoTag------------
2023-03-27 00:04:05,922 -[mav_srv] - INFO - {'time': 551443574, 'lat': 0.0, 'lon': 0.0, 'alt': 0.0, 'yaw': 17.398460388183594, 'pitch': -1.8496066331863403, 'roll': 0.6720403432846069, 'speed': 0.0}
2023-03-27 00:04:06,923 -[mav_srv] - INFO - -------GeoTag------------
2023-03-27 00:04:06,924 -[mav_srv] - INFO - {'time': 552444680, 'lat': 0.0, 'lon': 0.0, 'alt': 0.0, 'yaw': 17.414506912231445, 'pitch': -1.810312032699585, 'roll': 0.6482661366462708, 'speed': 0.0}
2023-03-27 00:04:07,930 -[mav_srv] - INFO - -------GeoTag------------
2023-03-27 00:04:07,930 -[mav_srv] - INFO - {'time': 553443574, 'lat': 0.0, 'lon': 0.0, 'alt': 0.0, 'yaw': 17.409936904907227, 'pitch': -1.8058662414550781, 'roll': 0.6424232125282288, 'speed': 0.0}
2023-03-27 00:04:08,933 -[mav_srv] - INFO - -------GeoTag------------
2023-03-27 00:04:08,933 -[mav_srv] - INFO - {'time': 554444575, 'lat': 0.0, 'lon': 0.0, 'alt': 0.0, 'yaw': 17.39177894592285, 'pitch': -1.837417721748352, 'roll': 0.6694204211235046, 'speed': 0.0}
2023-03-27 00:04:09,935 -[mav_srv] - INFO - -------GeoTag------------
2023-03-27 00:04:09,935 -[mav_srv] - INFO - {'time': 555443711, 'lat': 0.0, 'lon': 0.0, 'alt': 0.0, 'yaw': 17.425212860107422, 'pitch': -1.862822413444519, 'roll': 0.6637565493583679, 'speed': 0.0}
2023-03-27 00:04:10,936 -[mav_srv] - INFO - -------GeoTag------------
2023-03-27 00:04:10,936 -[mav_srv] - INFO - {'time': 556443576, 'lat': 0.0, 'lon': 0.0, 'alt': 0.0, 'yaw': 17.423442840576172, 'pitch': -1.8418281078338623, 'roll': 0.6554540395736694, 'speed': 0.0}
2023-03-27 00:04:11,938 -[mav_srv] - INFO - -------GeoTag------------
2023-03-27 00:04:11,939 -[mav_srv] - INFO - {'time': 557445597, 'lat': 0.0, 'lon': 0.0, 'alt': 0.0, 'yaw': 17.432287216186523, 'pitch': -1.8345624208450317, 'roll': 0.6625832319259644, 'speed': 0.0}
2023-03-27 00:04:12,946 -[mav_srv] - INFO - -------GeoTag------------
2023-03-27 00:04:12,949 -[mav_srv] - INFO - {'time': 558445728, 'lat': 0.0, 'lon': 0.0, 'alt': 0.0, 'yaw': 17.43453598022461, 'pitch': -1.8300904035568237, 'roll': 0.6875253915786743, 'speed': 0.0}
2023-03-27 00:04:13,951 -[mav_srv] - INFO - -------GeoTag------------
2023-03-27 00:04:13,952 -[mav_srv] - INFO - {'time': 559444581, 'lat': 0.0, 'lon': 0.0, 'alt': 0.0, 'yaw': 17.403545379638672, 'pitch': -1.8156882524490356, 'roll': 0.6872009038925171, 'speed': 0.0}
2023-03-27 00:04:14,954 -[mav_srv] - INFO - -------GeoTag------------
2023-03-27 00:04:14,954 -[mav_srv] - INFO - {'time': 560442576, 'lat': 0.0, 'lon': 0.0, 'alt': 0.0, 'yaw': 17.42580223083496, 'pitch': -1.8254756927490234, 'roll': 0.6744935512542725, 'speed': 0.0}
2023-03-27 00:04:15,955 -[mav_srv] - INFO - -------GeoTag------------
2023-03-27 00:04:15,955 -[mav_srv] - INFO - {'time': 561442671, 'lat': 0.0, 'lon': 0.0, 'alt': 0.0, 'yaw': 17.43922996520996, 'pitch': -1.8628840446472168, 'roll': 0.6886134743690491, 'speed': 0.0}
2023-03-27 00:04:16,956 -[mav_srv] - INFO - -------GeoTag------------
2023-03-27 00:04:16,957 -[mav_srv] - INFO - {'time': 562442576, 'lat': 0.0, 'lon': 0.0, 'alt': 0.0, 'yaw': 17.42571258544922, 'pitch': -1.8521243333816528, 'roll': 0.682844340801239, 'speed': 0.0}
2023-03-27 00:04:17,964 -[mav_srv] - INFO - -------GeoTag------------
2023-03-27 00:04:17,964 -[mav_srv] - INFO - {'time': 563442593, 'lat': 0.0, 'lon': 0.0, 'alt': 0.0, 'yaw': 17.444744110107422, 'pitch': -1.8048118352890015, 'roll': 0.664140522480011, 'speed': 0.0}
2023-03-27 00:04:18,966 -[mav_srv] - INFO - -------GeoTag------------
2023-03-27 00:04:18,967 -[mav_srv] - INFO - {'time': 564442588, 'lat': 0.0, 'lon': 0.0, 'alt': 0.0, 'yaw': 17.418437957763672, 'pitch': -1.819081425666809, 'roll': 0.6687465310096741, 'speed': 0.0}
2023-03-27 00:04:19,968 -[mav_srv] - INFO - -------GeoTag------------
2023-03-27 00:04:19,968 -[mav_srv] - INFO - {'time': 565442576, 'lat': 0.0, 'lon': 0.0, 'alt': 0.0, 'yaw': 17.406400680541992, 'pitch': -1.856015682220459, 'roll': 0.6697918176651001, 'speed': 0.0}
2023-03-27 00:04:20,969 -[mav_srv] - INFO - -------GeoTag------------
2023-03-27 00:04:20,970 -[mav_srv] - INFO - {'time': 566443577, 'lat': 0.0, 'lon': 0.0, 'alt': 0.0, 'yaw': 17.440143585205078, 'pitch': -1.8206658363342285, 'roll': 0.6592678427696228, 'speed': 0.0}
2023-03-27 00:04:21,973 -[mav_srv] - INFO - -------GeoTag------------
2023-03-27 00:04:21,973 -[mav_srv] - INFO - {'time': 567443575, 'lat': 0.0, 'lon': 0.0, 'alt': 0.0, 'yaw': 17.43120765686035, 'pitch': -1.8177894353866577, 'roll': 0.645621120929718, 'speed': 0.0}
2023-03-27 00:04:22,974 -[mav_srv] - INFO - -------GeoTag------------
2023-03-27 00:04:22,975 -[mav_srv] - INFO - {'time': 568442581, 'lat': 0.0, 'lon': 0.0, 'alt': 0.0, 'yaw': 17.42966651916504, 'pitch': -1.8253216743469238, 'roll': 0.6727338433265686, 'speed': 0.0}
2023-03-27 00:04:23,979 -[mav_srv] - INFO - -------GeoTag------------
2023-03-27 00:04:23,980 -[mav_srv] - INFO - {'time': 569442576, 'lat': 0.0, 'lon': 0.0, 'alt': 0.0, 'yaw': 17.431737899780273, 'pitch': -1.8332258462905884, 'roll': 0.680376410484314, 'speed': 0.0}
2023-03-27 00:04:24,982 -[mav_srv] - INFO - -------GeoTag------------
2023-03-27 00:04:24,982 -[mav_srv] - INFO - {'time': 570442575, 'lat': 0.0, 'lon': 0.0, 'alt': 0.0, 'yaw': 17.43500328063965, 'pitch': -1.8324248790740967, 'roll': 0.6606854796409607, 'speed': 0.0}
2023-03-27 00:04:25,987 -[mav_srv] - INFO - -------GeoTag------------
2023-03-27 00:04:25,987 -[mav_srv] - INFO - {'time': 571442575, 'lat': 0.0, 'lon': 0.0, 'alt': 0.0, 'yaw': 17.466035842895508, 'pitch': -1.8617596626281738, 'roll': 0.6617505550384521, 'speed': 0.0}
2023-03-27 00:04:26,989 -[mav_srv] - INFO - -------GeoTag------------
2023-03-27 00:04:26,990 -[mav_srv] - INFO - {'time': 572443575, 'lat': 0.0, 'lon': 0.0, 'alt': 0.0, 'yaw': 17.445669174194336, 'pitch': -1.8515291213989258, 'roll': 0.6612228155136108, 'speed': 0.0}
2023-03-27 00:04:27,992 -[mav_srv] - INFO - -------GeoTag------------
2023-03-27 00:04:27,993 -[mav_srv] - INFO - {'time': 573444575, 'lat': 0.0, 'lon': 0.0, 'alt': 0.0, 'yaw': 17.455432891845703, 'pitch': -1.8329628705978394, 'roll': 0.6685587763786316, 'speed': 0.0}
2023-03-27 00:04:28,994 -[mav_srv] - INFO - -------GeoTag------------
2023-03-27 00:04:28,995 -[mav_srv] - INFO - {'time': 574442576, 'lat': 0.0, 'lon': 0.0, 'alt': 0.0, 'yaw': 17.449546813964844, 'pitch': -1.8348066806793213, 'roll': 0.662717342376709, 'speed': 0.0}
2023-03-27 00:04:29,997 -[mav_srv] - INFO - -------GeoTag------------
2023-03-27 00:04:29,998 -[mav_srv] - INFO - {'time': 575441577, 'lat': 0.0, 'lon': 0.0, 'alt': 0.0, 'yaw': 17.4200382232666, 'pitch': -1.8450658321380615, 'roll': 0.6762757897377014, 'speed': 0.0}
2023-03-27 00:04:31,000 -[mav_srv] - INFO - -------GeoTag------------
2023-03-27 00:04:31,000 -[mav_srv] - INFO - {'time': 576442575, 'lat': 0.0, 'lon': 0.0, 'alt': 0.0, 'yaw': 17.448259353637695, 'pitch': -1.8784319162368774, 'roll': 0.6902413964271545, 'speed': 0.0}
2023-03-27 00:04:32,002 -[mav_srv] - INFO - -------GeoTag------------
2023-03-27 00:04:32,003 -[mav_srv] - INFO - {'time': 577443582, 'lat': 0.0, 'lon': 0.0, 'alt': 0.0, 'yaw': 17.47740936279297, 'pitch': -1.8494477272033691, 'roll': 0.6779085397720337, 'speed': 0.0}
2023-03-27 00:04:33,005 -[mav_srv] - INFO - -------GeoTag------------
2023-03-27 00:04:33,006 -[mav_srv] - INFO - {'time': 578442576, 'lat': 0.0, 'lon': 0.0, 'alt': 0.0, 'yaw': 17.477514266967773, 'pitch': -1.8446745872497559, 'roll': 0.6953595280647278, 'speed': 0.0}
2023-03-27 00:04:34,007 -[mav_srv] - INFO - -------GeoTag------------
2023-03-27 00:04:34,008 -[mav_srv] - INFO - {'time': 579442576, 'lat': 0.0, 'lon': 0.0, 'alt': 0.0, 'yaw': 17.491621017456055, 'pitch': -1.8573646545410156, 'roll': 0.7046458125114441, 'speed': 0.0}
2023-03-27 00:04:35,011 -[mav_srv] - INFO - -------GeoTag------------
2023-03-27 00:04:35,011 -[mav_srv] - INFO - {'time': 580442600, 'lat': 0.0, 'lon': 0.0, 'alt': 0.0, 'yaw': 17.479148864746094, 'pitch': -1.8466980457305908, 'roll': 0.6868040561676025, 'speed': 0.0}
2023-03-27 00:04:36,014 -[mav_srv] - INFO - -------GeoTag------------
2023-03-27 00:04:36,015 -[mav_srv] - INFO - {'time': 581442797, 'lat': 0.0, 'lon': 0.0, 'alt': 0.0, 'yaw': 17.482309341430664, 'pitch': -1.8342851400375366, 'roll': 0.6699057221412659, 'speed': 0.0}
2023-03-27 00:04:37,016 -[mav_srv] - INFO - -------GeoTag------------
2023-03-27 00:04:37,017 -[mav_srv] - INFO - {'time': 582441576, 'lat': 0.0, 'lon': 0.0, 'alt': 0.0, 'yaw': 17.509624481201172, 'pitch': -1.8608016967773438, 'roll': 0.6937323808670044, 'speed': 0.0}
2023-03-27 00:04:38,018 -[mav_srv] - INFO - -------GeoTag------------
2023-03-27 00:04:38,019 -[mav_srv] - INFO - {'time': 583441576, 'lat': 0.0, 'lon': 0.0, 'alt': 0.0, 'yaw': 17.496349334716797, 'pitch': -1.852866530418396, 'roll': 0.6985161304473877, 'speed': 0.0}
2023-03-27 00:04:39,022 -[mav_srv] - INFO - -------GeoTag------------
2023-03-27 00:04:39,024 -[mav_srv] - INFO - {'time': 584441600, 'lat': 0.0, 'lon': 0.0, 'alt': 0.0, 'yaw': 17.5151309967041, 'pitch': -1.8208980560302734, 'roll': 0.6729312539100647, 'speed': 0.0}
2023-03-27 00:04:40,034 -[mav_srv] - INFO - -------GeoTag------------
2023-03-27 00:04:40,035 -[mav_srv] - INFO - {'time': 585641575, 'lat': 0.0, 'lon': 0.0, 'alt': 0.0, 'yaw': 17.506925582885742, 'pitch': -1.8262362480163574, 'roll': 0.6675229668617249, 'speed': 0.0}
2023-03-27 00:04:41,037 -[mav_srv] - INFO - -------GeoTag------------
2023-03-27 00:04:41,038 -[mav_srv] - INFO - {'time': 586641575, 'lat': 0.0, 'lon': 0.0, 'alt': 0.0, 'yaw': 17.48792839050293, 'pitch': -1.8449935913085938, 'roll': 0.6767789125442505, 'speed': 0.0}
2023-03-27 00:04:42,040 -[mav_srv] - INFO - -------GeoTag------------
2023-03-27 00:04:42,041 -[mav_srv] - INFO - {'time': 587641582, 'lat': 0.0, 'lon': 0.0, 'alt': 0.0, 'yaw': 17.52096939086914, 'pitch': -1.8530949354171753, 'roll': 0.6780207753181458, 'speed': 0.0}
2023-03-27 00:04:43,045 -[mav_srv] - INFO - -------GeoTag------------
2023-03-27 00:04:43,046 -[mav_srv] - INFO - {'time': 588641575, 'lat': 0.0, 'lon': 0.0, 'alt': 0.0, 'yaw': 17.51622772216797, 'pitch': -1.8439170122146606, 'roll': 0.6612094640731812, 'speed': 0.0}
2023-03-27 00:04:44,047 -[mav_srv] - INFO - -------GeoTag------------
2023-03-27 00:04:44,047 -[mav_srv] - INFO - {'time': 589641711, 'lat': 0.0, 'lon': 0.0, 'alt': 0.0, 'yaw': 17.50520896911621, 'pitch': -1.8461754322052002, 'roll': 0.6610580086708069, 'speed': 0.0}
2023-03-27 00:04:45,049 -[mav_srv] - INFO - -------GeoTag------------
2023-03-27 00:04:45,049 -[mav_srv] - INFO - {'time': 590641575, 'lat': 0.0, 'lon': 0.0, 'alt': 0.0, 'yaw': 17.523681640625, 'pitch': -1.852051854133606, 'roll': 0.6636298298835754, 'speed': 0.0}
2023-03-27 00:04:46,050 -[mav_srv] - INFO - -------GeoTag------------
2023-03-27 00:04:46,055 -[mav_srv] - INFO - {'time': 591641750, 'lat': 0.0, 'lon': 0.0, 'alt': 0.0, 'yaw': 17.51115608215332, 'pitch': -1.8662186861038208, 'roll': 0.6671942472457886, 'speed': 0.0}
2023-03-27 00:04:47,057 -[mav_srv] - INFO - -------GeoTag------------
2023-03-27 00:04:47,058 -[mav_srv] - INFO - {'time': 592641575, 'lat': 0.0, 'lon': 0.0, 'alt': 0.0, 'yaw': 17.516756057739258, 'pitch': -1.864331603050232, 'roll': 0.6525138020515442, 'speed': 0.0}
2023-03-27 00:04:48,060 -[mav_srv] - INFO - -------GeoTag------------
2023-03-27 00:04:48,060 -[mav_srv] - INFO - {'time': 593641575, 'lat': 0.0, 'lon': 0.0, 'alt': 0.0, 'yaw': 17.519500732421875, 'pitch': -1.8445110321044922, 'roll': 0.6622604727745056, 'speed': 0.0}
2023-03-27 00:04:49,062 -[mav_srv] - INFO - -------GeoTag------------
2023-03-27 00:04:49,063 -[mav_srv] - INFO - {'time': 594642576, 'lat': 0.0, 'lon': 0.0, 'alt': 0.0, 'yaw': 17.48847007751465, 'pitch': -1.8246392011642456, 'roll': 0.6503679156303406, 'speed': 0.0}
2023-03-27 00:04:50,066 -[mav_srv] - INFO - -------GeoTag------------
2023-03-27 00:04:50,066 -[mav_srv] - INFO - {'time': 595642696, 'lat': 0.0, 'lon': 0.0, 'alt': 0.0, 'yaw': 17.501850128173828, 'pitch': -1.797361135482788, 'roll': 0.6482197046279907, 'speed': 0.0}
2023-03-27 00:04:51,068 -[mav_srv] - INFO - -------GeoTag------------
2023-03-27 00:04:51,069 -[mav_srv] - INFO - {'time': 596641575, 'lat': 0.0, 'lon': 0.0, 'alt': 0.0, 'yaw': 17.48813247680664, 'pitch': -1.81949782371521, 'roll': 0.6712995767593384, 'speed': 0.0}
2023-03-27 00:04:52,074 -[mav_srv] - INFO - -------GeoTag------------
2023-03-27 00:04:52,075 -[mav_srv] - INFO - {'time': 597641575, 'lat': 0.0, 'lon': 0.0, 'alt': 0.0, 'yaw': 17.489818572998047, 'pitch': -1.835426926612854, 'roll': 0.6654300689697266, 'speed': 0.0}
2023-03-27 00:04:53,076 -[mav_srv] - INFO - -------GeoTag------------
2023-03-27 00:04:53,077 -[mav_srv] - INFO - {'time': 598642575, 'lat': 0.0, 'lon': 0.0, 'alt': 0.0, 'yaw': 17.506418228149414, 'pitch': -1.8325836658477783, 'roll': 0.6416471004486084, 'speed': 0.0}
2023-03-27 00:04:54,079 -[mav_srv] - INFO - -------GeoTag------------
2023-03-27 00:04:54,080 -[mav_srv] - INFO - {'time': 599641585, 'lat': 0.0, 'lon': 0.0, 'alt': 0.0, 'yaw': 17.475364685058594, 'pitch': -1.8326739072799683, 'roll': 0.642953097820282, 'speed': 0.0}
2023-03-27 00:04:55,081 -[mav_srv] - INFO - -------GeoTag------------
2023-03-27 00:04:55,081 -[mav_srv] - INFO - {'time': 600641574, 'lat': 0.0, 'lon': 0.0, 'alt': 0.0, 'yaw': 17.470186233520508, 'pitch': -1.8320380449295044, 'roll': 0.6563904881477356, 'speed': 0.0}
2023-03-27 00:04:56,083 -[mav_srv] - INFO - -------GeoTag------------
2023-03-27 00:04:56,083 -[mav_srv] - INFO - {'time': 601642581, 'lat': 0.0, 'lon': 0.0, 'alt': 0.0, 'yaw': 17.462377548217773, 'pitch': -1.8141425848007202, 'roll': 0.6538294553756714, 'speed': 0.0}
2023-03-27 00:04:57,084 -[mav_srv] - INFO - -------GeoTag------------
2023-03-27 00:04:57,085 -[mav_srv] - INFO - {'time': 602641575, 'lat': 0.0, 'lon': 0.0, 'alt': 0.0, 'yaw': 17.460887908935547, 'pitch': -1.8375635147094727, 'roll': 0.6584532260894775, 'speed': 0.0}
2023-03-27 00:04:58,087 -[mav_srv] - INFO - -------GeoTag------------
2023-03-27 00:04:58,087 -[mav_srv] - INFO - {'time': 603641746, 'lat': 0.0, 'lon': 0.0, 'alt': 0.0, 'yaw': 17.492727279663086, 'pitch': -1.8551193475723267, 'roll': 0.6609747409820557, 'speed': 0.0}
2023-03-27 00:04:59,089 -[mav_srv] - INFO - -------GeoTag------------
2023-03-27 00:04:59,089 -[mav_srv] - INFO - {'time': 604640576, 'lat': 0.0, 'lon': 0.0, 'alt': 0.0, 'yaw': 17.473939895629883, 'pitch': -1.8471779823303223, 'roll': 0.6635478138923645, 'speed': 0.0}
2023-03-27 00:05:00,090 -[mav_srv] - INFO - -------GeoTag------------
2023-03-27 00:05:00,091 -[mav_srv] - INFO - {'time': 605640575, 'lat': 0.0, 'lon': 0.0, 'alt': 0.0, 'yaw': 17.475725173950195, 'pitch': -1.8075456619262695, 'roll': 0.654346764087677, 'speed': 0.0}
2023-03-27 00:05:01,093 -[mav_srv] - INFO - -------GeoTag------------
2023-03-27 00:05:01,094 -[mav_srv] - INFO - {'time': 606641575, 'lat': 0.0, 'lon': 0.0, 'alt': 0.0, 'yaw': 17.492340087890625, 'pitch': -1.8312777280807495, 'roll': 0.6608657240867615, 'speed': 0.0}
2023-03-27 00:05:02,095 -[mav_srv] - INFO - -------GeoTag------------
2023-03-27 00:05:02,096 -[mav_srv] - INFO - {'time': 607642592, 'lat': 0.0, 'lon': 0.0, 'alt': 0.0, 'yaw': 17.469160079956055, 'pitch': -1.8525670766830444, 'roll': 0.667774498462677, 'speed': 0.0}
2023-03-27 00:05:03,097 -[mav_srv] - INFO - -------GeoTag------------
2023-03-27 00:05:03,105 -[mav_srv] - INFO - {'time': 608641584, 'lat': 0.0, 'lon': 0.0, 'alt': 0.0, 'yaw': 17.503339767456055, 'pitch': -1.8465601205825806, 'roll': 0.6405594944953918, 'speed': 0.0}
2023-03-27 00:05:04,109 -[mav_srv] - INFO - -------GeoTag------------
2023-03-27 00:05:04,109 -[mav_srv] - INFO - {'time': 609640594, 'lat': 0.0, 'lon': 0.0, 'alt': 0.0, 'yaw': 17.513561248779297, 'pitch': -1.8316365480422974, 'roll': 0.6165242195129395, 'speed': 0.0}
2023-03-27 00:05:05,110 -[mav_srv] - INFO - -------GeoTag------------
2023-03-27 00:05:05,111 -[mav_srv] - INFO - {'time': 610640907, 'lat': 0.0, 'lon': 0.0, 'alt': 0.0, 'yaw': 17.486778259277344, 'pitch': -1.8318485021591187, 'roll': 0.6377912163734436, 'speed': 0.0}
2023-03-27 00:05:06,113 -[mav_srv] - INFO - -------GeoTag------------
2023-03-27 00:05:06,113 -[mav_srv] - INFO - {'time': 611640576, 'lat': 0.0, 'lon': 0.0, 'alt': 0.0, 'yaw': 17.492584228515625, 'pitch': -1.848531723022461, 'roll': 0.6485820412635803, 'speed': 0.0}
2023-03-27 00:05:07,116 -[mav_srv] - INFO - -------GeoTag------------
2023-03-27 00:05:07,117 -[mav_srv] - INFO - {'time': 612640576, 'lat': 0.0, 'lon': 0.0, 'alt': 0.0, 'yaw': 17.48658561706543, 'pitch': -1.8338981866836548, 'roll': 0.6460404396057129, 'speed': 0.0}
2023-03-27 00:05:08,121 -[mav_srv] - INFO - -------GeoTag------------
2023-03-27 00:05:08,123 -[mav_srv] - INFO - {'time': 613640589, 'lat': 0.0, 'lon': 0.0, 'alt': 0.0, 'yaw': 17.494794845581055, 'pitch': -1.8441764116287231, 'roll': 0.6531835198402405, 'speed': 0.0}
2023-03-27 00:05:09,132 -[mav_srv] - INFO - -------GeoTag------------
2023-03-27 00:05:09,133 -[mav_srv] - INFO - {'time': 614640598, 'lat': 0.0, 'lon': 0.0, 'alt': 0.0, 'yaw': 17.51362419128418, 'pitch': -1.8485838174819946, 'roll': 0.661971926689148, 'speed': 0.0}
2023-03-27 00:05:10,134 -[mav_srv] - INFO - -------GeoTag------------
2023-03-27 00:05:10,141 -[mav_srv] - INFO - {'time': 615640577, 'lat': 0.0, 'lon': 0.0, 'alt': 0.0, 'yaw': 17.496273040771484, 'pitch': -1.8460856676101685, 'roll': 0.6654421091079712, 'speed': 0.0}
2023-03-27 00:05:11,142 -[mav_srv] - INFO - -------GeoTag------------
2023-03-27 00:05:11,143 -[mav_srv] - INFO - {'time': 616641595, 'lat': 0.0, 'lon': 0.0, 'alt': 0.0, 'yaw': 17.51034927368164, 'pitch': -1.8276691436767578, 'roll': 0.6641451716423035, 'speed': 0.0}
2023-03-27 00:05:12,144 -[mav_srv] - INFO - -------GeoTag------------
2023-03-27 00:05:12,145 -[mav_srv] - INFO - {'time': 617640661, 'lat': 0.0, 'lon': 0.0, 'alt': 0.0, 'yaw': 17.507362365722656, 'pitch': -1.8516221046447754, 'roll': 0.6561850309371948, 'speed': 0.0}
2023-03-27 00:05:13,147 -[mav_srv] - INFO - -------GeoTag------------
2023-03-27 00:05:13,147 -[mav_srv] - INFO - {'time': 618640987, 'lat': 0.0, 'lon': 0.0, 'alt': 0.0, 'yaw': 17.50656509399414, 'pitch': -1.8661531209945679, 'roll': 0.6481660604476929, 'speed': 0.0}
                                                                                                                                                                                                                                                                                                                                                                                                                                                                                                                                                                                                                                                                                                                                                                                                                                                                                                                                                                                                                                                                                                                                                                                                                                                                                                                                                                                                                                                                                                                                                                                                                                                                        2023-03-26 23:55:20,232 -[mav_srv] - INFO - Waiting for drone...
2023-03-26 23:55:20,238 -[mav_srv] - INFO - Drone discovered
2023-03-26 23:55:20,240 -[mav_srv] - INFO - -------GeoTag------------
2023-03-26 23:55:20,240 -[mav_srv] - INFO - {'time': 0, 'lat': 0.0, 'lon': 0.0, 'alt': 0.0, 'yaw': 0.0, 'pitch': 0.0, 'roll': 0.0, 'speed': 0.0}
2023-03-26 23:55:21,242 -[mav_srv] - INFO - -------GeoTag------------
2023-03-26 23:55:21,242 -[mav_srv] - INFO - {'time': 27152568, 'lat': 0.0, 'lon': 0.0, 'alt': 0.0, 'yaw': 174.2031707763672, 'pitch': -2.601259231567383, 'roll': 2.087231159210205, 'speed': 0.0}
2023-03-26 23:55:22,244 -[mav_srv] - INFO - -------GeoTag------------
2023-03-26 23:55:22,245 -[mav_srv] - INFO - {'time': 28150584, 'lat': 0.0, 'lon': 0.0, 'alt': 0.0, 'yaw': 174.22531127929688, 'pitch': -2.609083652496338, 'roll': 2.078866720199585, 'speed': 0.0}
2023-03-26 23:55:23,246 -[mav_srv] - INFO - -------GeoTag------------
2023-03-26 23:55:23,247 -[mav_srv] - INFO - {'time': 29149570, 'lat': 0.0, 'lon': 0.0, 'alt': 0.0, 'yaw': 174.3083038330078, 'pitch': -2.6120972633361816, 'roll': 2.07297945022583, 'speed': 0.0}
2023-03-26 23:55:24,248 -[mav_srv] - INFO - -------GeoTag------------
2023-03-26 23:55:24,249 -[mav_srv] - INFO - {'time': 30149571, 'lat': 0.0, 'lon': 0.0, 'alt': 0.0, 'yaw': 174.37315368652344, 'pitch': -2.5846569538116455, 'roll': 2.069324016571045, 'speed': 0.0}
2023-03-26 23:55:25,250 -[mav_srv] - INFO - -------GeoTag------------
2023-03-26 23:55:25,250 -[mav_srv] - INFO - {'time': 31149570, 'lat': 0.0, 'lon': 0.0, 'alt': 0.0, 'yaw': 174.43328857421875, 'pitch': -2.5671465396881104, 'roll': 2.072364091873169, 'speed': 0.0}
2023-03-26 23:55:26,252 -[mav_srv] - INFO - -------GeoTag------------
2023-03-26 23:55:26,252 -[mav_srv] - INFO - {'time': 32149570, 'lat': 0.0, 'lon': 0.0, 'alt': 0.0, 'yaw': 174.50531005859375, 'pitch': -2.519131660461426, 'roll': 2.1258957386016846, 'speed': 0.0}
2023-03-26 23:55:27,254 -[mav_srv] - INFO - -------GeoTag------------
2023-03-26 23:55:27,255 -[mav_srv] - INFO - {'time': 33150569, 'lat': 0.0, 'lon': 0.0, 'alt': 0.0, 'yaw': 174.52731323242188, 'pitch': -2.415198564529419, 'roll': 2.1650564670562744, 'speed': 0.0}
2023-03-26 23:55:28,256 -[mav_srv] - INFO - -------GeoTag------------
2023-03-26 23:55:28,258 -[mav_srv] - INFO - {'time': 34150568, 'lat': 0.0, 'lon': 0.0, 'alt': 0.0, 'yaw': 174.5687255859375, 'pitch': -2.4541025161743164, 'roll': 2.112011671066284, 'speed': 0.0}
2023-03-26 23:55:29,260 -[mav_srv] - INFO - -------GeoTag------------
2023-03-26 23:55:29,260 -[mav_srv] - INFO - {'time': 35348570, 'lat': 0.0, 'lon': 0.0, 'alt': 0.0, 'yaw': 174.62779235839844, 'pitch': -2.4768319129943848, 'roll': 2.1358354091644287, 'speed': 0.0}
2023-03-26 23:55:30,262 -[mav_srv] - INFO - -------GeoTag------------
2023-03-26 23:55:30,262 -[mav_srv] - INFO - {'time': 36352103, 'lat': 0.0, 'lon': 0.0, 'alt': 0.0, 'yaw': 174.67892456054688, 'pitch': -2.397167444229126, 'roll': 2.194979667663574, 'speed': 0.0}
2023-03-26 23:55:31,263 -[mav_srv] - INFO - -------GeoTag------------
2023-03-26 23:55:31,264 -[mav_srv] - INFO - {'time': 37351650, 'lat': 0.0, 'lon': 0.0, 'alt': 0.0, 'yaw': 174.70066833496094, 'pitch': -2.3997864723205566, 'roll': 2.1601593494415283, 'speed': 0.0}
2023-03-26 23:55:32,265 -[mav_srv] - INFO - -------GeoTag------------
2023-03-26 23:55:32,266 -[mav_srv] - INFO - {'time': 38351568, 'lat': 0.0, 'lon': 0.0, 'alt': 0.0, 'yaw': 174.74163818359375, 'pitch': -2.4428672790527344, 'roll': 2.1239278316497803, 'speed': 0.0}
2023-03-26 23:55:33,267 -[mav_srv] - INFO - -------GeoTag------------
2023-03-26 23:55:33,268 -[mav_srv] - INFO - {'time': 39352569, 'lat': 0.0, 'lon': 0.0, 'alt': 0.0, 'yaw': 174.7794952392578, 'pitch': -2.4904589653015137, 'roll': 2.1200008392333984, 'speed': 0.0}
2023-03-26 23:55:34,269 -[mav_srv] - INFO - -------GeoTag------------
2023-03-26 23:55:34,269 -[mav_srv] - INFO - {'time': 40349569, 'lat': 0.0, 'lon': 0.0, 'alt': 0.0, 'yaw': 174.79986572265625, 'pitch': -2.486272096633911, 'roll': 2.095062494277954, 'speed': 0.0}
2023-03-26 23:55:35,272 -[mav_srv] - INFO - -------GeoTag------------
2023-03-26 23:55:35,272 -[mav_srv] - INFO - {'time': 41350569, 'lat': 0.0, 'lon': 0.0, 'alt': 0.0, 'yaw': 174.8209991455078, 'pitch': -2.451747179031372, 'roll': 2.0826616287231445, 'speed': 0.0}
2023-03-26 23:55:36,273 -[mav_srv] - INFO - -------GeoTag------------
2023-03-26 23:55:36,273 -[mav_srv] - INFO - {'time': 42349570, 'lat': 0.0, 'lon': 0.0, 'alt': 0.0, 'yaw': 174.83676147460938, 'pitch': -2.4507579803466797, 'roll': 2.1108341217041016, 'speed': 0.0}
2023-03-26 23:55:37,275 -[mav_srv] - INFO - -------GeoTag------------
2023-03-26 23:55:37,275 -[mav_srv] - INFO - {'time': 43350568, 'lat': 0.0, 'lon': 0.0, 'alt': 0.0, 'yaw': 174.80670166015625, 'pitch': -2.4850051403045654, 'roll': 2.1286211013793945, 'speed': 0.0}
2023-03-26 23:55:38,277 -[mav_srv] - INFO - -------GeoTag------------
2023-03-26 23:55:38,277 -[mav_srv] - INFO - {'time': 44350568, 'lat': 0.0, 'lon': 0.0, 'alt': 0.0, 'yaw': 174.83274841308594, 'pitch': -2.492095470428467, 'roll': 2.1083571910858154, 'speed': 0.0}
2023-03-26 23:55:39,289 -[mav_srv] - INFO - -------GeoTag------------
2023-03-26 23:55:39,290 -[mav_srv] - INFO - {'time': 45351730, 'lat': 0.0, 'lon': 0.0, 'alt': 0.0, 'yaw': 174.8417205810547, 'pitch': -2.4920852184295654, 'roll': 2.1221976280212402, 'speed': 0.0}
2023-03-26 23:55:40,292 -[mav_srv] - INFO - -------GeoTag------------
2023-03-26 23:55:40,293 -[mav_srv] - INFO - {'time': 46351568, 'lat': 0.0, 'lon': 0.0, 'alt': 0.0, 'yaw': 174.87954711914062, 'pitch': -2.486501693725586, 'roll': 2.141526699066162, 'speed': 0.0}
2023-03-26 23:55:41,294 -[mav_srv] - INFO - -------GeoTag------------
2023-03-26 23:55:41,295 -[mav_srv] - INFO - {'time': 47350569, 'lat': 0.0, 'lon': 0.0, 'alt': 0.0, 'yaw': 174.89405822753906, 'pitch': -2.4606757164001465, 'roll': 2.127297878265381, 'speed': 0.0}
2023-03-26 23:55:42,297 -[mav_srv] - INFO - -------GeoTag------------
2023-03-26 23:55:42,297 -[mav_srv] - INFO - {'time': 48348568, 'lat': 0.0, 'lon': 0.0, 'alt': 0.0, 'yaw': 174.8975372314453, 'pitch': -2.4630863666534424, 'roll': 2.101968288421631, 'speed': 0.0}
2023-03-26 23:55:43,299 -[mav_srv] - INFO - -------GeoTag------------
2023-03-26 23:55:43,300 -[mav_srv] - INFO - {'time': 49349588, 'lat': 0.0, 'lon': 0.0, 'alt': 0.0, 'yaw': 174.897705078125, 'pitch': -2.4812662601470947, 'roll': 2.1133952140808105, 'speed': 0.0}
2023-03-26 23:55:44,302 -[mav_srv] - INFO - -------GeoTag------------
2023-03-26 23:55:44,302 -[mav_srv] - INFO - {'time': 50349570, 'lat': 0.0, 'lon': 0.0, 'alt': 0.0, 'yaw': 174.89401245117188, 'pitch': -2.5030767917633057, 'roll': 2.1038355827331543, 'speed': 0.0}
2023-03-26 23:55:45,304 -[mav_srv] - INFO - -------GeoTag------------
2023-03-26 23:55:45,304 -[mav_srv] - INFO - {'time': 51349618, 'lat': 0.0, 'lon': 0.0, 'alt': 0.0, 'yaw': 174.91665649414062, 'pitch': -2.4927268028259277, 'roll': 2.096022367477417, 'speed': 0.0}
2023-03-26 23:55:46,306 -[mav_srv] - INFO - -------GeoTag------------
2023-03-26 23:55:46,306 -[mav_srv] - INFO - {'time': 52349648, 'lat': 0.0, 'lon': 0.0, 'alt': 0.0, 'yaw': 174.92190551757812, 'pitch': -2.4622902870178223, 'roll': 2.0886354446411133, 'speed': 0.0}
2023-03-26 23:55:47,307 -[mav_srv] - INFO - -------GeoTag------------
2023-03-26 23:55:47,308 -[mav_srv] - INFO - {'time': 53348570, 'lat': 0.0, 'lon': 0.0, 'alt': 0.0, 'yaw': 174.91421508789062, 'pitch': -2.472182512283325, 'roll': 2.11334490776062, 'speed': 0.0}
2023-03-26 23:55:48,308 -[mav_srv] - INFO - -------GeoTag------------
2023-03-26 23:55:48,309 -[mav_srv] - INFO - {'time': 54348569, 'lat': 0.0, 'lon': 0.0, 'alt': 0.0, 'yaw': 174.91123962402344, 'pitch': -2.4692201614379883, 'roll': 2.119997501373291, 'speed': 0.0}
2023-03-26 23:55:49,316 -[mav_srv] - INFO - -------GeoTag------------
2023-03-26 23:55:49,317 -[mav_srv] - INFO - {'time': 55348581, 'lat': 0.0, 'lon': 0.0, 'alt': 0.0, 'yaw': 174.907958984375, 'pitch': -2.4641008377075195, 'roll': 2.094660520553589, 'speed': 0.0}
2023-03-26 23:55:50,317 -[mav_srv] - INFO - -------GeoTag------------
2023-03-26 23:55:50,318 -[mav_srv] - INFO - {'time': 56348569, 'lat': 0.0, 'lon': 0.0, 'alt': 0.0, 'yaw': 174.90887451171875, 'pitch': -2.481037139892578, 'roll': 2.113288402557373, 'speed': 0.0}
2023-03-26 23:55:51,320 -[mav_srv] - INFO - -------GeoTag------------
2023-03-26 23:55:51,320 -[mav_srv] - INFO - {'time': 57348570, 'lat': 0.0, 'lon': 0.0, 'alt': 0.0, 'yaw': 174.9129638671875, 'pitch': -2.4878015518188477, 'roll': 2.1179797649383545, 'speed': 0.0}
2023-03-26 23:55:52,321 -[mav_srv] - INFO - -------GeoTag------------
2023-03-26 23:55:52,322 -[mav_srv] - INFO - {'time': 58348572, 'lat': 0.0, 'lon': 0.0, 'alt': 0.0, 'yaw': 174.90875244140625, 'pitch': -2.437596559524536, 'roll': 2.091341018676758, 'speed': 0.0}
2023-03-26 23:55:53,324 -[mav_srv] - INFO - -------GeoTag------------
2023-03-26 23:55:53,325 -[mav_srv] - INFO - {'time': 59349652, 'lat': 0.0, 'lon': 0.0, 'alt': 0.0, 'yaw': 174.89158630371094, 'pitch': -2.4200599193573, 'roll': 2.0764126777648926, 'speed': 0.0}
2023-03-26 23:55:54,328 -[mav_srv] - INFO - -------GeoTag------------
2023-03-26 23:55:54,328 -[mav_srv] - INFO - {'time': 60348586, 'lat': 0.0, 'lon': 0.0, 'alt': 0.0, 'yaw': 174.91212463378906, 'pitch': -2.4604780673980713, 'roll': 2.093430995941162, 'speed': 0.0}
2023-03-26 23:55:55,330 -[mav_srv] - INFO - -------GeoTag------------
2023-03-26 23:55:55,330 -[mav_srv] - INFO - {'time': 61347573, 'lat': 0.0, 'lon': 0.0, 'alt': 0.0, 'yaw': 174.9105682373047, 'pitch': -2.4743642807006836, 'roll': 2.0644726753234863, 'speed': 0.0}
2023-03-26 23:55:56,332 -[mav_srv] - INFO - -------GeoTag------------
2023-03-26 23:55:56,332 -[mav_srv] - INFO - {'time': 62349739, 'lat': 0.0, 'lon': 0.0, 'alt': 0.0, 'yaw': 174.92556762695312, 'pitch': -2.4603328704833984, 'roll': 2.070911407470703, 'speed': 0.0}
2023-03-26 23:55:57,335 -[mav_srv] - INFO - -------GeoTag------------
2023-03-26 23:55:57,335 -[mav_srv] - INFO - {'time': 63349569, 'lat': 0.0, 'lon': 0.0, 'alt': 0.0, 'yaw': 174.93836975097656, 'pitch': -2.4528443813323975, 'roll': 2.084571599960327, 'speed': 0.0}
2023-03-26 23:55:58,337 -[mav_srv] - INFO - -------GeoTag------------
2023-03-26 23:55:58,337 -[mav_srv] - INFO - {'time': 64348569, 'lat': 0.0, 'lon': 0.0, 'alt': 0.0, 'yaw': 174.93666076660156, 'pitch': -2.453847885131836, 'roll': 2.083120107650757, 'speed': 0.0}
2023-03-26 23:55:59,344 -[mav_srv] - INFO - -------GeoTag------------
2023-03-26 23:55:59,344 -[mav_srv] - INFO - {'time': 65348568, 'lat': 0.0, 'lon': 0.0, 'alt': 0.0, 'yaw': 174.94537353515625, 'pitch': -2.4537694454193115, 'roll': 2.0602612495422363, 'speed': 0.0}
2023-03-26 23:56:00,347 -[mav_srv] - INFO - -------GeoTag------------
2023-03-26 23:56:00,348 -[mav_srv] - INFO - {'time': 66348571, 'lat': 0.0, 'lon': 0.0, 'alt': 0.0, 'yaw': 174.93910217285156, 'pitch': -2.4665615558624268, 'roll': 2.0381293296813965, 'speed': 0.0}
2023-03-26 23:56:01,349 -[mav_srv] - INFO - -------GeoTag------------
2023-03-26 23:56:01,350 -[mav_srv] - INFO - {'time': 67348594, 'lat': 0.0, 'lon': 0.0, 'alt': 0.0, 'yaw': 174.9373321533203, 'pitch': -2.46122407913208, 'roll': 2.06657338142395, 'speed': 0.0}
2023-03-26 23:56:02,352 -[mav_srv] - INFO - -------GeoTag------------
2023-03-26 23:56:02,352 -[mav_srv] - INFO - {'time': 68348569, 'lat': 0.0, 'lon': 0.0, 'alt': 0.0, 'yaw': 174.94569396972656, 'pitch': -2.4407949447631836, 'roll': 2.0656018257141113, 'speed': 0.0}
2023-03-26 23:56:03,354 -[mav_srv] - INFO - -------GeoTag------------
2023-03-26 23:56:03,354 -[mav_srv] - INFO - {'time': 69349569, 'lat': 0.0, 'lon': 0.0, 'alt': 0.0, 'yaw': 174.93992614746094, 'pitch': -2.4086849689483643, 'roll': 2.0661864280700684, 'speed': 0.0}
2023-03-26 23:56:04,361 -[mav_srv] - INFO - -------GeoTag------------
2023-03-26 23:56:04,362 -[mav_srv] - INFO - {'time': 70352595, 'lat': 0.0, 'lon': 0.0, 'alt': 0.0, 'yaw': 174.916259765625, 'pitch': -2.4301254749298096, 'roll': 2.0684163570404053, 'speed': 0.0}
2023-03-26 23:56:05,363 -[mav_srv] - INFO - -------GeoTag------------
2023-03-26 23:56:05,364 -[mav_srv] - INFO - {'time': 71352569, 'lat': 0.0, 'lon': 0.0, 'alt': 0.0, 'yaw': 174.92572021484375, 'pitch': -2.463477611541748, 'roll': 2.0856668949127197, 'speed': 0.0}
2023-03-26 23:56:06,365 -[mav_srv] - INFO - -------GeoTag------------
2023-03-26 23:56:06,366 -[mav_srv] - INFO - {'time': 72349570, 'lat': 0.0, 'lon': 0.0, 'alt': 0.0, 'yaw': 174.94638061523438, 'pitch': -2.4377174377441406, 'roll': 2.0555367469787598, 'speed': 0.0}
2023-03-26 23:56:07,367 -[mav_srv] - INFO - -------GeoTag------------
2023-03-26 23:56:07,368 -[mav_srv] - INFO - {'time': 73351583, 'lat': 0.0, 'lon': 0.0, 'alt': 0.0, 'yaw': 174.94503784179688, 'pitch': -2.430450439453125, 'roll': 2.06429386138916, 'speed': 0.0}
2023-03-26 23:56:08,369 -[mav_srv] - INFO - -------GeoTag------------
2023-03-26 23:56:08,370 -[mav_srv] - INFO - {'time': 74349584, 'lat': 0.0, 'lon': 0.0, 'alt': 0.0, 'yaw': 174.95240783691406, 'pitch': -2.4289798736572266, 'roll': 2.0865633487701416, 'speed': 0.0}
2023-03-26 23:56:09,376 -[mav_srv] - INFO - -------GeoTag------------
2023-03-26 23:56:09,376 -[mav_srv] - INFO - {'time': 75349568, 'lat': 0.0, 'lon': 0.0, 'alt': 0.0, 'yaw': 174.9361114501953, 'pitch': -2.4274816513061523, 'roll': 2.0780601501464844, 'speed': 0.0}
2023-03-26 23:56:10,378 -[mav_srv] - INFO - -------GeoTag------------
2023-03-26 23:56:10,378 -[mav_srv] - INFO - {'time': 76349569, 'lat': 0.0, 'lon': 0.0, 'alt': 0.0, 'yaw': 174.93289184570312, 'pitch': -2.4304239749908447, 'roll': 2.0520942211151123, 'speed': 0.0}
2023-03-26 23:56:11,379 -[mav_srv] - INFO - -------GeoTag------------
2023-03-26 23:56:11,380 -[mav_srv] - INFO - {'time': 77351569, 'lat': 0.0, 'lon': 0.0, 'alt': 0.0, 'yaw': 174.92494201660156, 'pitch': -2.433922529220581, 'roll': 2.0681467056274414, 'speed': 0.0}
2023-03-26 23:56:12,383 -[mav_srv] - INFO - -------GeoTag------------
2023-03-26 23:56:12,383 -[mav_srv] - INFO - {'time': 78349576, 'lat': 0.0, 'lon': 0.0, 'alt': 0.0, 'yaw': 174.94607543945312, 'pitch': -2.4390108585357666, 'roll': 2.077911615371704, 'speed': 0.0}
2023-03-26 23:56:13,386 -[mav_srv] - INFO - -------GeoTag------------
2023-03-26 23:56:13,387 -[mav_srv] - INFO - {'time': 79349570, 'lat': 0.0, 'lon': 0.0, 'alt': 0.0, 'yaw': 174.93113708496094, 'pitch': -2.4073920249938965, 'roll': 2.072816848754883, 'speed': 0.0}
2023-03-26 23:56:14,393 -[mav_srv] - INFO - -------GeoTag------------
2023-03-26 23:56:14,393 -[mav_srv] - INFO - {'time': 80349572, 'lat': 0.0, 'lon': 0.0, 'alt': 0.0, 'yaw': 174.93496704101562, 'pitch': -2.398820638656616, 'roll': 2.0856804847717285, 'speed': 0.0}
2023-03-26 23:56:15,394 -[mav_srv] - INFO - -------GeoTag------------
2023-03-26 23:56:15,394 -[mav_srv] - INFO - {'time': 81350575, 'lat': 0.0, 'lon': 0.0, 'alt': 0.0, 'yaw': 174.93624877929688, 'pitch': -2.4257311820983887, 'roll': 2.1000962257385254, 'speed': 0.0}
2023-03-26 23:56:16,396 -[mav_srv] - INFO - -------GeoTag------------
2023-03-26 23:56:16,396 -[mav_srv] - INFO - {'time': 82351595, 'lat': 0.0, 'lon': 0.0, 'alt': 0.0, 'yaw': 174.93942260742188, 'pitch': -2.4301598072052, 'roll': 2.0876450538635254, 'speed': 0.0}
2023-03-26 23:56:17,397 -[mav_srv] - INFO - -------GeoTag------------
2023-03-26 23:56:17,398 -[mav_srv] - INFO - {'time': 83349613, 'lat': 0.0, 'lon': 0.0, 'alt': 0.0, 'yaw': 174.93861389160156, 'pitch': -2.395141124725342, 'roll': 2.0864827632904053, 'speed': 0.0}
2023-03-26 23:56:18,401 -[mav_srv] - INFO - -------GeoTag------------
2023-03-26 23:56:18,401 -[mav_srv] - INFO - {'time': 84349570, 'lat': 0.0, 'lon': 0.0, 'alt': 0.0, 'yaw': 174.94473266601562, 'pitch': -2.400311231613159, 'roll': 2.081923007965088, 'speed': 0.0}
2023-03-26 23:56:19,402 -[mav_srv] - INFO - -------GeoTag------------
2023-03-26 23:56:19,403 -[mav_srv] - INFO - {'time': 85349569, 'lat': 0.0, 'lon': 0.0, 'alt': 0.0, 'yaw': 174.92909240722656, 'pitch': -2.4073214530944824, 'roll': 2.085381269454956, 'speed': 0.0}
2023-03-26 23:56:20,405 -[mav_srv] - INFO - -------GeoTag------------
2023-03-26 23:56:20,405 -[mav_srv] - INFO - {'time': 86349576, 'lat': 0.0, 'lon': 0.0, 'alt': 0.0, 'yaw': 174.9373016357422, 'pitch': -2.412179946899414, 'roll': 2.065018892288208, 'speed': 0.0}
2023-03-26 23:56:21,407 -[mav_srv] - INFO - -------GeoTag------------
2023-03-26 23:56:21,407 -[mav_srv] - INFO - {'time': 87347570, 'lat': 0.0, 'lon': 0.0, 'alt': 0.0, 'yaw': 174.93687438964844, 'pitch': -2.417398452758789, 'roll': 2.058591604232788, 'speed': 0.0}
2023-03-26 23:56:22,410 -[mav_srv] - INFO - -------GeoTag------------
2023-03-26 23:56:22,410 -[mav_srv] - INFO - {'time': 88350570, 'lat': 0.0, 'lon': 0.0, 'alt': 0.0, 'yaw': 174.92623901367188, 'pitch': -2.4245946407318115, 'roll': 2.0797324180603027, 'speed': 0.0}
2023-03-26 23:56:23,412 -[mav_srv] - INFO - -------GeoTag------------
2023-03-26 23:56:23,413 -[mav_srv] - INFO - {'time': 89349629, 'lat': 0.0, 'lon': 0.0, 'alt': 0.0, 'yaw': 174.9232177734375, 'pitch': -2.393535852432251, 'roll': 2.064042806625366, 'speed': 0.0}
2023-03-26 23:56:24,418 -[mav_srv] - INFO - -------GeoTag------------
2023-03-26 23:56:24,419 -[mav_srv] - INFO - {'time': 90349570, 'lat': 0.0, 'lon': 0.0, 'alt': 0.0, 'yaw': 174.90087890625, 'pitch': -2.3869757652282715, 'roll': 2.0432183742523193, 'speed': 0.0}
2023-03-26 23:56:25,420 -[mav_srv] - INFO - -------GeoTag------------
2023-03-26 23:56:25,420 -[mav_srv] - INFO - {'time': 91351570, 'lat': 0.0, 'lon': 0.0, 'alt': 0.0, 'yaw': 174.89361572265625, 'pitch': -2.3991150856018066, 'roll': 2.0582773685455322, 'speed': 0.0}
2023-03-26 23:56:26,422 -[mav_srv] - INFO - -------GeoTag------------
2023-03-26 23:56:26,422 -[mav_srv] - INFO - {'time': 92350576, 'lat': 0.0, 'lon': 0.0, 'alt': 0.0, 'yaw': 174.90322875976562, 'pitch': -2.4293370246887207, 'roll': 2.049851179122925, 'speed': 0.0}
2023-03-26 23:56:27,423 -[mav_srv] - INFO - -------GeoTag------------
2023-03-26 23:56:27,424 -[mav_srv] - INFO - {'time': 93351572, 'lat': 0.0, 'lon': 0.0, 'alt': 0.0, 'yaw': 174.90496826171875, 'pitch': -2.447960138320923, 'roll': 2.0316171646118164, 'speed': 0.0}
2023-03-26 23:56:28,425 -[mav_srv] - INFO - -------GeoTag------------
2023-03-26 23:56:28,426 -[mav_srv] - INFO - {'time': 94349569, 'lat': 0.0, 'lon': 0.0, 'alt': 0.0, 'yaw': 174.9062957763672, 'pitch': -2.4260308742523193, 'roll': 2.0123488903045654, 'speed': 0.0}
2023-03-26 23:56:29,432 -[mav_srv] - INFO - -------GeoTag------------
2023-03-26 23:56:29,432 -[mav_srv] - INFO - {'time': 95349760, 'lat': 0.0, 'lon': 0.0, 'alt': 0.0, 'yaw': 174.89956665039062, 'pitch': -2.434774160385132, 'roll': 2.0419974327087402, 'speed': 0.0}
2023-03-26 23:56:30,433 -[mav_srv] - INFO - -------GeoTag------------
2023-03-26 23:56:30,434 -[mav_srv] - INFO - {'time': 96349569, 'lat': 0.0, 'lon': 0.0, 'alt': 0.0, 'yaw': 174.87367248535156, 'pitch': -2.4345266819000244, 'roll': 2.0401721000671387, 'speed': 0.0}
2023-03-26 23:56:31,435 -[mav_srv] - INFO - -------GeoTag------------
2023-03-26 23:56:31,436 -[mav_srv] - INFO - {'time': 97349604, 'lat': 0.0, 'lon': 0.0, 'alt': 0.0, 'yaw': 174.87091064453125, 'pitch': -2.416471481323242, 'roll': 2.0349674224853516, 'speed': 0.0}
2023-03-26 23:56:32,438 -[mav_srv] - INFO - -------GeoTag------------
2023-03-26 23:56:32,439 -[mav_srv] - INFO - {'time': 98349580, 'lat': 0.0, 'lon': 0.0, 'alt': 0.0, 'yaw': 174.86141967773438, 'pitch': -2.4447569847106934, 'roll': 2.043813467025757, 'speed': 0.0}
2023-03-26 23:56:33,440 -[mav_srv] - INFO - -------GeoTag------------
2023-03-26 23:56:33,440 -[mav_srv] - INFO - {'time': 99349628, 'lat': 0.0, 'lon': 0.0, 'alt': 0.0, 'yaw': 174.87014770507812, 'pitch': -2.450253963470459, 'roll': 2.0606095790863037, 'speed': 0.0}
2023-03-26 23:56:34,447 -[mav_srv] - INFO - -------GeoTag------------
2023-03-26 23:56:34,448 -[mav_srv] - INFO - {'time': 100349569, 'lat': 0.0, 'lon': 0.0, 'alt': 0.0, 'yaw': 174.85723876953125, 'pitch': -2.414701223373413, 'roll': 2.0385634899139404, 'speed': 0.0}
2023-03-26 23:56:35,451 -[mav_srv] - INFO - -------GeoTag------------
2023-03-26 23:56:35,451 -[mav_srv] - INFO - {'time': 101349597, 'lat': 0.0, 'lon': 0.0, 'alt': 0.0, 'yaw': 174.83323669433594, 'pitch': -2.401029586791992, 'roll': 2.0434675216674805, 'speed': 0.0}
2023-03-26 23:56:36,452 -[mav_srv] - INFO - -------GeoTag------------
2023-03-26 23:56:36,453 -[mav_srv] - INFO - {'time': 102351644, 'lat': 0.0, 'lon': 0.0, 'alt': 0.0, 'yaw': 174.82791137695312, 'pitch': -2.4181160926818848, 'roll': 2.058021306991577, 'speed': 0.0}
2023-03-26 23:56:37,454 -[mav_srv] - INFO - -------GeoTag------------
2023-03-26 23:56:37,454 -[mav_srv] - INFO - {'time': 103351572, 'lat': 0.0, 'lon': 0.0, 'alt': 0.0, 'yaw': 174.83070373535156, 'pitch': -2.4115583896636963, 'roll': 2.054293632507324, 'speed': 0.0}
2023-03-26 23:56:38,456 -[mav_srv] - INFO - -------GeoTag------------
2023-03-26 23:56:38,456 -[mav_srv] - INFO - {'time': 104351569, 'lat': 0.0, 'lon': 0.0, 'alt': 0.0, 'yaw': 174.828857421875, 'pitch': -2.3934319019317627, 'roll': 2.0457537174224854, 'speed': 0.0}
