2023-03-26 23:56:24,050 -[mav_srv] - INFO - {'time': 149674583, 'lat': 0.0, 'lon': 0.0, 'alt': 0.0, 'yaw': -37.51387023925781, 'pitch': -1.5923840999603271, 'roll': 1.331241488456726, 'speed': 0.0}
2023-03-26 23:56:25,060 -[mav_srv] - INFO - -------GeoTag------------
2023-03-26 23:56:25,060 -[mav_srv] - INFO - {'time': 150675579, 'lat': 0.0, 'lon': 0.0, 'alt': 0.0, 'yaw': -37.49853515625, 'pitch': -1.611759901046753, 'roll': 1.3625764846801758, 'speed': 0.0}
2023-03-26 23:56:26,062 -[mav_srv] - INFO - -------GeoTag------------
2023-03-26 23:56:26,062 -[mav_srv] - INFO - {'time': 151676609, 'lat': 0.0, 'lon': 0.0, 'alt': 0.0, 'yaw': -37.50953674316406, 'pitch': -1.6164287328720093, 'roll': 1.3568062782287598, 'speed': 0.0}
2023-03-26 23:56:27,063 -[mav_srv] - INFO - -------GeoTag------------
2023-03-26 23:56:27,064 -[mav_srv] - INFO - {'time': 152674577, 'lat': 0.0, 'lon': 0.0, 'alt': 0.0, 'yaw': -37.50994873046875, 'pitch': -1.593026041984558, 'roll': 1.3240094184875488, 'speed': 0.0}
2023-03-26 23:56:28,065 -[mav_srv] - INFO - -------GeoTag------------
2023-03-26 23:56:28,066 -[mav_srv] - INFO - {'time': 153674577, 'lat': 0.0, 'lon': 0.0, 'alt': 0.0, 'yaw': -37.4932861328125, 'pitch': -1.604683756828308, 'roll': 1.3365533351898193, 'speed': 0.0}
2023-03-26 23:56:29,068 -[mav_srv] - INFO - -------GeoTag------------
2023-03-26 23:56:29,068 -[mav_srv] - INFO - {'time': 154676646, 'lat': 0.0, 'lon': 0.0, 'alt': 0.0, 'yaw': -37.52219009399414, 'pitch': -1.6082862615585327, 'roll': 1.351084589958191, 'speed': 0.0}
2023-03-26 23:56:30,069 -[mav_srv] - INFO - -------GeoTag------------
2023-03-26 23:56:30,070 -[mav_srv] - INFO - {'time': 155676609, 'lat': 0.0, 'lon': 0.0, 'alt': 0.0, 'yaw': -37.51393127441406, 'pitch': -1.632375717163086, 'roll': 1.333799958229065, 'speed': 0.0}
2023-03-26 23:56:31,072 -[mav_srv] - INFO - -------GeoTag------------
2023-03-26 23:56:31,072 -[mav_srv] - INFO - {'time': 156677133, 'lat': 0.0, 'lon': 0.0, 'alt': 0.0, 'yaw': -37.51893615722656, 'pitch': -1.646475911140442, 'roll': 1.359460473060608, 'speed': 0.0}
2023-03-26 23:56:32,074 -[mav_srv] - INFO - -------GeoTag------------
2023-03-26 23:56:32,075 -[mav_srv] - INFO - {'time': 157675576, 'lat': 0.0, 'lon': 0.0, 'alt': 0.0, 'yaw': -37.533634185791016, 'pitch': -1.6155083179473877, 'roll': 1.3234061002731323, 'speed': 0.0}
2023-03-26 23:56:33,079 -[mav_srv] - INFO - -------GeoTag------------
2023-03-26 23:56:33,079 -[mav_srv] - INFO - {'time': 158674576, 'lat': 0.0, 'lon': 0.0, 'alt': 0.0, 'yaw': -37.52225112915039, 'pitch': -1.6444976329803467, 'roll': 1.3638330698013306, 'speed': 0.0}
2023-03-26 23:56:34,085 -[mav_srv] - INFO - -------GeoTag------------
2023-03-26 23:56:34,086 -[mav_srv] - INFO - {'time': 159674577, 'lat': 0.0, 'lon': 0.0, 'alt': 0.0, 'yaw': -37.52656555175781, 'pitch': -1.6496903896331787, 'roll': 1.3659781217575073, 'speed': 0.0}
2023-03-26 23:56:35,088 -[mav_srv] - INFO - -------GeoTag------------
2023-03-26 23:56:35,088 -[mav_srv] - INFO - {'time': 160673576, 'lat': 0.0, 'lon': 0.0, 'alt': 0.0, 'yaw': -37.523250579833984, 'pitch': -1.6551564931869507, 'roll': 1.3656589984893799, 'speed': 0.0}
2023-03-26 23:56:36,090 -[mav_srv] - INFO - -------GeoTag------------
2023-03-26 23:56:36,090 -[mav_srv] - INFO - {'time': 161674577, 'lat': 0.0, 'lon': 0.0, 'alt': 0.0, 'yaw': -37.51059341430664, 'pitch': -1.6572967767715454, 'roll': 1.3658685684204102, 'speed': 0.0}
2023-03-26 23:56:37,092 -[mav_srv] - INFO - -------GeoTag------------
2023-03-26 23:56:37,092 -[mav_srv] - INFO - {'time': 162672579, 'lat': 0.0, 'lon': 0.0, 'alt': 0.0, 'yaw': -37.520565032958984, 'pitch': -1.6571199893951416, 'roll': 1.366818904876709, 'speed': 0.0}
2023-03-26 23:56:38,094 -[mav_srv] - INFO - -------GeoTag------------
2023-03-26 23:56:38,094 -[mav_srv] - INFO - {'time': 163672577, 'lat': 0.0, 'lon': 0.0, 'alt': 0.0, 'yaw': -37.51956558227539, 'pitch': -1.6561733484268188, 'roll': 1.3728233575820923, 'speed': 0.0}
2023-03-26 23:56:39,096 -[mav_srv] - INFO - -------GeoTag------------
2023-03-26 23:56:39,097 -[mav_srv] - INFO - {'time': 164672577, 'lat': 0.0, 'lon': 0.0, 'alt': 0.0, 'yaw': -37.519920349121094, 'pitch': -1.6568996906280518, 'roll': 1.3691561222076416, 'speed': 0.0}
2023-03-26 23:56:40,103 -[mav_srv] - INFO - -------GeoTag------------
2023-03-26 23:56:40,104 -[mav_srv] - INFO - {'time': 165672578, 'lat': 0.0, 'lon': 0.0, 'alt': 0.0, 'yaw': -37.5349006652832, 'pitch': -1.6633552312850952, 'roll': 1.3623133897781372, 'speed': 0.0}
2023-03-26 23:56:41,105 -[mav_srv] - INFO - -------GeoTag------------
2023-03-26 23:56:41,105 -[mav_srv] - INFO - {'time': 166671577, 'lat': 0.0, 'lon': 0.0, 'alt': 0.0, 'yaw': -37.52721405029297, 'pitch': -1.6491659879684448, 'roll': 1.3726800680160522, 'speed': 0.0}
2023-03-26 23:56:42,107 -[mav_srv] - INFO - -------GeoTag------------
2023-03-26 23:56:42,107 -[mav_srv] - INFO - {'time': 167672576, 'lat': 0.0, 'lon': 0.0, 'alt': 0.0, 'yaw': -37.543540954589844, 'pitch': -1.6604945659637451, 'roll': 1.3682600259780884, 'speed': 0.0}
2023-03-26 23:56:43,108 -[mav_srv] - INFO - -------GeoTag------------
2023-03-26 23:56:43,109 -[mav_srv] - INFO - {'time': 168674575, 'lat': 0.0, 'lon': 0.0, 'alt': 0.0, 'yaw': -37.54136276245117, 'pitch': -1.659325122833252, 'roll': 1.375990629196167, 'speed': 0.0}
2023-03-26 23:56:44,111 -[mav_srv] - INFO - -------GeoTag------------
2023-03-26 23:56:44,111 -[mav_srv] - INFO - {'time': 169672583, 'lat': 0.0, 'lon': 0.0, 'alt': 0.0, 'yaw': -37.53703689575195, 'pitch': -1.6511125564575195, 'roll': 1.3799790143966675, 'speed': 0.0}
2023-03-26 23:56:45,112 -[mav_srv] - INFO - -------GeoTag------------
2023-03-26 23:56:45,112 -[mav_srv] - INFO - {'time': 170672576, 'lat': 0.0, 'lon': 0.0, 'alt': 0.0, 'yaw': -37.55891418457031, 'pitch': -1.6536566019058228, 'roll': 1.3617596626281738, 'speed': 0.0}
2023-03-26 23:56:46,114 -[mav_srv] - INFO - -------GeoTag------------
2023-03-26 23:56:46,115 -[mav_srv] - INFO - {'time': 171672657, 'lat': 0.0, 'lon': 0.0, 'alt': 0.0, 'yaw': -37.542415618896484, 'pitch': -1.6566541194915771, 'roll': 1.3698670864105225, 'speed': 0.0}
2023-03-26 23:56:47,116 -[mav_srv] - INFO - -------GeoTag------------
2023-03-26 23:56:47,117 -[mav_srv] - INFO - {'time': 172672584, 'lat': 0.0, 'lon': 0.0, 'alt': 0.0, 'yaw': -37.56782150268555, 'pitch': -1.651246190071106, 'roll': 1.3781845569610596, 'speed': 0.0}
2023-03-26 23:56:48,120 -[mav_srv] - INFO - -------GeoTag------------
2023-03-26 23:56:48,120 -[mav_srv] - INFO - {'time': 173674579, 'lat': 0.0, 'lon': 0.0, 'alt': 0.0, 'yaw': -37.57234573364258, 'pitch': -1.6567481756210327, 'roll': 1.3777247667312622, 'speed': 0.0}
2023-03-26 23:56:49,122 -[mav_srv] - INFO - -------GeoTag------------
2023-03-26 23:56:49,131 -[mav_srv] - INFO - {'time': 174674576, 'lat': 0.0, 'lon': 0.0, 'alt': 0.0, 'yaw': -37.56612014770508, 'pitch': -1.658786416053772, 'roll': 1.3697940111160278, 'speed': 0.0}
2023-03-26 23:56:50,133 -[mav_srv] - INFO - -------GeoTag------------
2023-03-26 23:56:50,133 -[mav_srv] - INFO - {'time': 175674701, 'lat': 0.0, 'lon': 0.0, 'alt': 0.0, 'yaw': -37.57060623168945, 'pitch': -1.6572304964065552, 'roll': 1.3708446025848389, 'speed': 0.0}
2023-03-26 23:56:51,135 -[mav_srv] - INFO - -------GeoTag------------
2023-03-26 23:56:51,135 -[mav_srv] - INFO - {'time': 176675574, 'lat': 0.0, 'lon': 0.0, 'alt': 0.0, 'yaw': -37.554588317871094, 'pitch': -1.656606674194336, 'roll': 1.358244776725769, 'speed': 0.0}
2023-03-26 23:56:52,137 -[mav_srv] - INFO - -------GeoTag------------
2023-03-26 23:56:52,137 -[mav_srv] - INFO - {'time': 177673577, 'lat': 0.0, 'lon': 0.0, 'alt': 0.0, 'yaw': -37.54827117919922, 'pitch': -1.6551172733306885, 'roll': 1.35300612449646, 'speed': 0.0}
2023-03-26 23:56:53,139 -[mav_srv] - INFO - -------GeoTag------------
2023-03-26 23:56:53,140 -[mav_srv] - INFO - {'time': 178673592, 'lat': 0.0, 'lon': 0.0, 'alt': 0.0, 'yaw': -37.55387496948242, 'pitch': -1.656475305557251, 'roll': 1.3462964296340942, 'speed': 0.0}
2023-03-26 23:56:54,141 -[mav_srv] - INFO - -------GeoTag------------
2023-03-26 23:56:54,142 -[mav_srv] - INFO - {'time': 179674577, 'lat': 0.0, 'lon': 0.0, 'alt': 0.0, 'yaw': -37.54100799560547, 'pitch': -1.6600620746612549, 'roll': 1.3470253944396973, 'speed': 0.0}
2023-03-26 23:56:55,149 -[mav_srv] - INFO - -------GeoTag------------
2023-03-26 23:56:55,150 -[mav_srv] - INFO - {'time': 180675018, 'lat': 0.0, 'lon': 0.0, 'alt': 0.0, 'yaw': -37.516422271728516, 'pitch': -1.6630854606628418, 'roll': 1.3519272804260254, 'speed': 0.0}
2023-03-26 23:56:56,152 -[mav_srv] - INFO - -------GeoTag------------
2023-03-26 23:56:56,152 -[mav_srv] - INFO - {'time': 181675034, 'lat': 0.0, 'lon': 0.0, 'alt': 0.0, 'yaw': -37.518638610839844, 'pitch': -1.6633455753326416, 'roll': 1.348929524421692, 'speed': 0.0}
2023-03-26 23:56:57,153 -[mav_srv] - INFO - -------GeoTag------------
2023-03-26 23:56:57,154 -[mav_srv] - INFO - {'time': 182674593, 'lat': 0.0, 'lon': 0.0, 'alt': 0.0, 'yaw': -37.47323989868164, 'pitch': -1.6652812957763672, 'roll': 1.3458749055862427, 'speed': 0.0}
2023-03-26 23:56:58,155 -[mav_srv] - INFO - -------GeoTag------------
2023-03-26 23:56:58,155 -[mav_srv] - INFO - {'time': 183674576, 'lat': 0.0, 'lon': 0.0, 'alt': 0.0, 'yaw': -37.476139068603516, 'pitch': -1.6610004901885986, 'roll': 1.3583815097808838, 'speed': 0.0}
2023-03-26 23:56:59,158 -[mav_srv] - INFO - -------GeoTag------------
2023-03-26 23:56:59,158 -[mav_srv] - INFO - {'time': 184672577, 'lat': 0.0, 'lon': 0.0, 'alt': 0.0, 'yaw': -37.46285629272461, 'pitch': -1.661727786064148, 'roll': 1.3546375036239624, 'speed': 0.0}
2023-03-26 23:57:00,164 -[mav_srv] - INFO - -------GeoTag------------
2023-03-26 23:57:00,164 -[mav_srv] - INFO - {'time': 185673576, 'lat': 0.0, 'lon': 0.0, 'alt': 0.0, 'yaw': -37.4427490234375, 'pitch': -1.6579474210739136, 'roll': 1.3616129159927368, 'speed': 0.0}
2023-03-26 23:57:01,166 -[mav_srv] - INFO - -------GeoTag------------
2023-03-26 23:57:01,166 -[mav_srv] - INFO - {'time': 186673576, 'lat': 0.0, 'lon': 0.0, 'alt': 0.0, 'yaw': -37.445430755615234, 'pitch': -1.6553195714950562, 'roll': 1.3669583797454834, 'speed': 0.0}
2023-03-26 23:57:02,169 -[mav_srv] - INFO - -------GeoTag------------
2023-03-26 23:57:02,170 -[mav_srv] - INFO - {'time': 187674576, 'lat': 0.0, 'lon': 0.0, 'alt': 0.0, 'yaw': -37.40017318725586, 'pitch': -1.6590481996536255, 'roll': 1.3685081005096436, 'speed': 0.0}
2023-03-26 23:57:03,171 -[mav_srv] - INFO - -------GeoTag------------
2023-03-26 23:57:03,171 -[mav_srv] - INFO - {'time': 188672802, 'lat': 0.0, 'lon': 0.0, 'alt': 0.0, 'yaw': -37.389339447021484, 'pitch': -1.6519192457199097, 'roll': 1.36396324634552, 'speed': 0.0}
2023-03-26 23:57:04,172 -[mav_srv] - INFO - -------GeoTag------------
2023-03-26 23:57:04,172 -[mav_srv] - INFO - {'time': 189673593, 'lat': 0.0, 'lon': 0.0, 'alt': 0.0, 'yaw': -37.373374938964844, 'pitch': -1.6535377502441406, 'roll': 1.3628265857696533, 'speed': 0.0}
2023-03-26 23:57:05,178 -[mav_srv] - INFO - -------GeoTag------------
2023-03-26 23:57:05,179 -[mav_srv] - INFO - {'time': 190673576, 'lat': 0.0, 'lon': 0.0, 'alt': 0.0, 'yaw': -37.34575271606445, 'pitch': -1.6540666818618774, 'roll': 1.3623294830322266, 'speed': 0.0}
2023-03-26 23:57:06,181 -[mav_srv] - INFO - -------GeoTag------------
2023-03-26 23:57:06,181 -[mav_srv] - INFO - {'time': 191674582, 'lat': 0.0, 'lon': 0.0, 'alt': 0.0, 'yaw': -37.34278106689453, 'pitch': -1.656523585319519, 'roll': 1.3661494255065918, 'speed': 0.0}
2023-03-26 23:57:07,182 -[mav_srv] - INFO - -------GeoTag------------
2023-03-26 23:57:07,183 -[mav_srv] - INFO - {'time': 192673587, 'lat': 0.0, 'lon': 0.0, 'alt': 0.0, 'yaw': -37.32839584350586, 'pitch': -1.6566838026046753, 'roll': 1.3709251880645752, 'speed': 0.0}
2023-03-26 23:57:08,185 -[mav_srv] - INFO - -------GeoTag------------
2023-03-26 23:57:08,186 -[mav_srv] - INFO - {'time': 193673577, 'lat': 0.0, 'lon': 0.0, 'alt': 0.0, 'yaw': -37.300445556640625, 'pitch': -1.6556532382965088, 'roll': 1.372199535369873, 'speed': 0.0}
2023-03-26 23:57:09,187 -[mav_srv] - INFO - -------GeoTag------------
2023-03-26 23:57:09,193 -[mav_srv] - INFO - {'time': 194673577, 'lat': 0.0, 'lon': 0.0, 'alt': 0.0, 'yaw': -37.29524612426758, 'pitch': -1.6544550657272339, 'roll': 1.3750864267349243, 'speed': 0.0}
2023-03-26 23:57:10,195 -[mav_srv] - INFO - -------GeoTag------------
2023-03-26 23:57:10,195 -[mav_srv] - INFO - {'time': 195672583, 'lat': 0.0, 'lon': 0.0, 'alt': 0.0, 'yaw': -37.27125549316406, 'pitch': -1.658095121383667, 'roll': 1.3708230257034302, 'speed': 0.0}
2023-03-26 23:57:11,196 -[mav_srv] - INFO - -------GeoTag------------
2023-03-26 23:57:11,197 -[mav_srv] - INFO - {'time': 196672577, 'lat': 0.0, 'lon': 0.0, 'alt': 0.0, 'yaw': -37.25166320800781, 'pitch': -1.6573741436004639, 'roll': 1.3687586784362793, 'speed': 0.0}
2023-03-26 23:57:12,198 -[mav_srv] - INFO - -------GeoTag------------
2023-03-26 23:57:12,198 -[mav_srv] - INFO - {'time': 197671577, 'lat': 0.0, 'lon': 0.0, 'alt': 0.0, 'yaw': -37.252384185791016, 'pitch': -1.6538169384002686, 'roll': 1.37138831615448, 'speed': 0.0}
2023-03-26 23:57:13,200 -[mav_srv] - INFO - -------GeoTag------------
2023-03-26 23:57:13,200 -[mav_srv] - INFO - {'time': 198673577, 'lat': 0.0, 'lon': 0.0, 'alt': 0.0, 'yaw': -37.21413040161133, 'pitch': -1.6574268341064453, 'roll': 1.368943214416504, 'speed': 0.0}
2023-03-26 23:57:14,202 -[mav_srv] - INFO - -------GeoTag------------
2023-03-26 23:57:14,203 -[mav_srv] - INFO - {'time': 199672577, 'lat': 0.0, 'lon': 0.0, 'alt': 0.0, 'yaw': -37.223079681396484, 'pitch': -1.654556155204773, 'roll': 1.3702274560928345, 'speed': 0.0}
2023-03-26 23:57:15,210 -[mav_srv] - INFO - -------GeoTag------------
2023-03-26 23:57:15,211 -[mav_srv] - INFO - {'time': 200872577, 'lat': 0.0, 'lon': 0.0, 'alt': 0.0, 'yaw': -37.20358657836914, 'pitch': -1.6458252668380737, 'roll': 1.3689513206481934, 'speed': 0.0}
2023-03-26 23:57:16,212 -[mav_srv] - INFO - -------GeoTag------------
2023-03-26 23:57:16,212 -[mav_srv] - INFO - {'time': 201872576, 'lat': 0.0, 'lon': 0.0, 'alt': 0.0, 'yaw': -37.193321228027344, 'pitch': -1.6495614051818848, 'roll': 1.3660717010498047, 'speed': 0.0}
2023-03-26 23:57:17,214 -[mav_srv] - INFO - -------GeoTag------------
2023-03-26 23:57:17,214 -[mav_srv] - INFO - {'time': 202872577, 'lat': 0.0, 'lon': 0.0, 'alt': 0.0, 'yaw': -37.20341110229492, 'pitch': -1.6500319242477417, 'roll': 1.3725926876068115, 'speed': 0.0}
2023-03-26 23:57:18,216 -[mav_srv] - INFO - -------GeoTag------------
2023-03-26 23:57:18,217 -[mav_srv] - INFO - {'time': 203873576, 'lat': 0.0, 'lon': 0.0, 'alt': 0.0, 'yaw': -37.169715881347656, 'pitch': -1.6484887599945068, 'roll': 1.3664215803146362, 'speed': 0.0}
2023-03-26 23:57:19,219 -[mav_srv] - INFO - -------GeoTag------------
2023-03-26 23:57:19,219 -[mav_srv] - INFO - {'time': 204871576, 'lat': 0.0, 'lon': 0.0, 'alt': 0.0, 'yaw': -37.170352935791016, 'pitch': -1.6489274501800537, 'roll': 1.365017294883728, 'speed': 0.0}
2023-03-26 23:57:20,226 -[mav_srv] - INFO - -------GeoTag------------
2023-03-26 23:57:20,226 -[mav_srv] - INFO - {'time': 205872656, 'lat': 0.0, 'lon': 0.0, 'alt': 0.0, 'yaw': -37.142887115478516, 'pitch': -1.6467525959014893, 'roll': 1.3612786531448364, 'speed': 0.0}
2023-03-26 23:57:21,228 -[mav_srv] - INFO - -------GeoTag------------
2023-03-26 23:57:21,228 -[mav_srv] - INFO - {'time': 206873577, 'lat': 0.0, 'lon': 0.0, 'alt': 0.0, 'yaw': -37.111759185791016, 'pitch': -1.6487362384796143, 'roll': 1.3666468858718872, 'speed': 0.0}
2023-03-26 23:57:22,229 -[mav_srv] - INFO - -------GeoTag------------
2023-03-26 23:57:22,230 -[mav_srv] - INFO - {'time': 207873591, 'lat': 0.0, 'lon': 0.0, 'alt': 0.0, 'yaw': -37.09917068481445, 'pitch': -1.6490793228149414, 'roll': 1.3667246103286743, 'speed': 0.0}
2023-03-26 23:57:23,231 -[mav_srv] - INFO - -------GeoTag------------
2023-03-26 23:57:23,231 -[mav_srv] - INFO - {'time': 208872965, 'lat': 0.0, 'lon': 0.0, 'alt': 0.0, 'yaw': -37.08867263793945, 'pitch': -1.648291826248169, 'roll': 1.3666400909423828, 'speed': 0.0}
2023-03-26 23:57:24,233 -[mav_srv] - INFO - -------GeoTag------------
2023-03-26 23:57:24,233 -[mav_srv] - INFO - {'time': 209872597, 'lat': 0.0, 'lon': 0.0, 'alt': 0.0, 'yaw': -37.06636047363281, 'pitch': -1.6499828100204468, 'roll': 1.3678585290908813, 'speed': 0.0}
2023-03-26 23:57:25,238 -[mav_srv] - INFO - -------GeoTag------------
2023-03-26 23:57:25,239 -[mav_srv] - INFO - {'time': 210872577, 'lat': 0.0, 'lon': 0.0, 'alt': 0.0, 'yaw': -37.05720901489258, 'pitch': -1.653838872909546, 'roll': 1.3674163818359375, 'speed': 0.0}
2023-03-26 23:57:26,240 -[mav_srv] - INFO - -------GeoTag------------
2023-03-26 23:57:26,242 -[mav_srv] - INFO - {'time': 211873576, 'lat': 0.0, 'lon': 0.0, 'alt': 0.0, 'yaw': -37.04066848754883, 'pitch': -1.654913306236267, 'roll': 1.3653315305709839, 'speed': 0.0}
2023-03-26 23:57:27,244 -[mav_srv] - INFO - -------GeoTag------------
2023-03-26 23:57:27,244 -[mav_srv] - INFO - {'time': 212872590, 'lat': 0.0, 'lon': 0.0, 'alt': 0.0, 'yaw': -37.030303955078125, 'pitch': -1.6516309976577759, 'roll': 1.3676574230194092, 'speed': 0.0}
2023-03-26 23:57:28,245 -[mav_srv] - INFO - -------GeoTag------------
2023-03-26 23:57:28,245 -[mav_srv] - INFO - {'time': 213871583, 'lat': 0.0, 'lon': 0.0, 'alt': 0.0, 'yaw': -37.03595733642578, 'pitch': -1.6505635976791382, 'roll': 1.3593674898147583, 'speed': 0.0}
2023-03-26 23:57:29,247 -[mav_srv] - INFO - -------GeoTag------------
2023-03-26 23:57:29,253 -[mav_srv] - INFO - {'time': 214872577, 'lat': 0.0, 'lon': 0.0, 'alt': 0.0, 'yaw': -36.99776840209961, 'pitch': -1.6516315937042236, 'roll': 1.3582707643508911, 'speed': 0.0}
2023-03-26 23:57:30,255 -[mav_srv] - INFO - -------GeoTag------------
2023-03-26 23:57:30,261 -[mav_srv] - INFO - {'time': 215873599, 'lat': 0.0, 'lon': 0.0, 'alt': 0.0, 'yaw': -37.010169982910156, 'pitch': -1.6474977731704712, 'roll': 1.3583768606185913, 'speed': 0.0}
2023-03-26 23:57:31,263 -[mav_srv] - INFO - -------GeoTag------------
2023-03-26 23:57:31,263 -[mav_srv] - INFO - {'time': 216872577, 'lat': 0.0, 'lon': 0.0, 'alt': 0.0, 'yaw': -36.996517181396484, 'pitch': -1.6449494361877441, 'roll': 1.3578189611434937, 'speed': 0.0}
2023-03-26 23:57:32,264 -[mav_srv] - INFO - -------GeoTag------------
2023-03-26 23:57:32,265 -[mav_srv] - INFO - {'time': 217873575, 'lat': 0.0, 'lon': 0.0, 'alt': 0.0, 'yaw': -36.96333694458008, 'pitch': -1.6520965099334717, 'roll': 1.361006259918213, 'speed': 0.0}
2023-03-26 23:57:33,266 -[mav_srv] - INFO - -------GeoTag------------
2023-03-26 23:57:33,267 -[mav_srv] - INFO - {'time': 218872577, 'lat': 0.0, 'lon': 0.0, 'alt': 0.0, 'yaw': -36.96843338012695, 'pitch': -1.6507196426391602, 'roll': 1.355975866317749, 'speed': 0.0}
2023-03-26 23:57:34,268 -[mav_srv] - INFO - -------GeoTag------------
2023-03-26 23:57:34,275 -[mav_srv] - INFO - {'time': 219871577, 'lat': 0.0, 'lon': 0.0, 'alt': 0.0, 'yaw': -36.94078063964844, 'pitch': -1.6474405527114868, 'roll': 1.3554103374481201, 'speed': 0.0}
2023-03-26 23:57:35,277 -[mav_srv] - INFO - -------GeoTag------------
2023-03-26 23:57:35,277 -[mav_srv] - INFO - {'time': 220872577, 'lat': 0.0, 'lon': 0.0, 'alt': 0.0, 'yaw': -36.92721939086914, 'pitch': -1.6479798555374146, 'roll': 1.359657883644104, 'speed': 0.0}
2023-03-26 23:57:36,279 -[mav_srv] - INFO - -------GeoTag------------
2023-03-26 23:57:36,280 -[mav_srv] - INFO - {'time': 221873601, 'lat': 0.0, 'lon': 0.0, 'alt': 0.0, 'yaw': -36.939002990722656, 'pitch': -1.6485041379928589, 'roll': 1.3582687377929688, 'speed': 0.0}
2023-03-26 23:57:37,282 -[mav_srv] - INFO - -------GeoTag------------
2023-03-26 23:57:37,283 -[mav_srv] - INFO - {'time': 222872575, 'lat': 0.0, 'lon': 0.0, 'alt': 0.0, 'yaw': -36.90612030029297, 'pitch': -1.648858666419983, 'roll': 1.357072114944458, 'speed': 0.0}
2023-03-26 23:57:38,284 -[mav_srv] - INFO - -------GeoTag------------
2023-03-26 23:57:38,285 -[mav_srv] - INFO - {'time': 223870594, 'lat': 0.0, 'lon': 0.0, 'alt': 0.0, 'yaw': -36.917724609375, 'pitch': -1.6447893381118774, 'roll': 1.3522089719772339, 'speed': 0.0}
2023-03-26 23:57:39,286 -[mav_srv] - INFO - -------GeoTag------------
2023-03-26 23:57:39,287 -[mav_srv] - INFO - {'time': 224871576, 'lat': 0.0, 'lon': 0.0, 'alt': 0.0, 'yaw': -36.90256881713867, 'pitch': -1.6439405679702759, 'roll': 1.3529170751571655, 'speed': 0.0}
2023-03-26 23:57:40,288 -[mav_srv] - INFO - -------GeoTag------------
2023-03-26 23:57:40,288 -[mav_srv] - INFO - {'time': 225870578, 'lat': 0.0, 'lon': 0.0, 'alt': 0.0, 'yaw': -36.89383316040039, 'pitch': -1.642946481704712, 'roll': 1.3561135530471802, 'speed': 0.0}
2023-03-26 23:57:41,290 -[mav_srv] - INFO - -------GeoTag------------
2023-03-26 23:57:41,290 -[mav_srv] - INFO - {'time': 226871576, 'lat': 0.0, 'lon': 0.0, 'alt': 0.0, 'yaw': -36.90725326538086, 'pitch': -1.654554843902588, 'roll': 1.3566780090332031, 'speed': 0.0}
2023-03-26 23:57:42,292 -[mav_srv] - INFO - -------GeoTag------------
2023-03-26 23:57:42,293 -[mav_srv] - INFO - {'time': 227870577, 'lat': 0.0, 'lon': 0.0, 'alt': 0.0, 'yaw': -36.8931999206543, 'pitch': -1.6467550992965698, 'roll': 1.358247995376587, 'speed': 0.0}
2023-03-26 23:57:43,294 -[mav_srv] - INFO - -------GeoTag------------
2023-03-26 23:57:43,295 -[mav_srv] - INFO - {'time': 228871577, 'lat': 0.0, 'lon': 0.0, 'alt': 0.0, 'yaw': -36.8965950012207, 'pitch': -1.654740810394287, 'roll': 1.3561944961547852, 'speed': 0.0}
2023-03-26 23:57:44,296 -[mav_srv] - INFO - -------GeoTag------------
2023-03-26 23:57:44,297 -[mav_srv] - INFO - {'time': 229871578, 'lat': 0.0, 'lon': 0.0, 'alt': 0.0, 'yaw': -36.89283752441406, 'pitch': -1.6478885412216187, 'roll': 1.355124831199646, 'speed': 0.0}
2023-03-26 23:57:45,305 -[mav_srv] - INFO - -------GeoTag------------
2023-03-26 23:57:45,305 -[mav_srv] - INFO - {'time': 230870583, 'lat': 0.0, 'lon': 0.0, 'alt': 0.0, 'yaw': -36.88186264038086, 'pitch': -1.647576093673706, 'roll': 1.3580961227416992, 'speed': 0.0}
2023-03-26 23:57:46,306 -[mav_srv] - INFO - -------GeoTag------------
2023-03-26 23:57:46,307 -[mav_srv] - INFO - {'time': 231870577, 'lat': 0.0, 'lon': 0.0, 'alt': 0.0, 'yaw': -36.89158630371094, 'pitch': -1.6442290544509888, 'roll': 1.3571670055389404, 'speed': 0.0}
2023-03-26 23:57:47,308 -[mav_srv] - INFO - -------GeoTag------------
2023-03-26 23:57:47,309 -[mav_srv] - INFO - {'time': 232870576, 'lat': 0.0, 'lon': 0.0, 'alt': 0.0, 'yaw': -36.898799896240234, 'pitch': -1.6422138214111328, 'roll': 1.3550533056259155, 'speed': 0.0}
2023-03-26 23:57:48,310 -[mav_srv] - INFO - -------GeoTag------------
2023-03-26 23:57:48,311 -[mav_srv] - INFO - {'time': 233872957, 'lat': 0.0, 'lon': 0.0, 'alt': 0.0, 'yaw': -36.89505386352539, 'pitch': -1.6342475414276123, 'roll': 1.3519057035446167, 'speed': 0.0}
2023-03-26 23:57:49,312 -[mav_srv] - INFO - -------GeoTag------------
2023-03-26 23:57:49,313 -[mav_srv] - INFO - {'time': 234872576, 'lat': 0.0, 'lon': 0.0, 'alt': 0.0, 'yaw': -36.91265106201172, 'pitch': -1.6310741901397705, 'roll': 1.3584908246994019, 'speed': 0.0}
2023-03-26 23:57:50,314 -[mav_srv] - INFO - -------GeoTag------------
2023-03-26 23:57:50,314 -[mav_srv] - INFO - {'time': 235871576, 'lat': 0.0, 'lon': 0.0, 'alt': 0.0, 'yaw': -36.895328521728516, 'pitch': -1.6466683149337769, 'roll': 1.3557450771331787, 'speed': 0.0}
2023-03-26 23:57:51,316 -[mav_srv] - INFO - -------GeoTag------------
2023-03-26 23:57:51,316 -[mav_srv] - INFO - {'time': 236870576, 'lat': 0.0, 'lon': 0.0, 'alt': 0.0, 'yaw': -36.90300750732422, 'pitch': -1.6463595628738403, 'roll': 1.3599879741668701, 'speed': 0.0}
2023-03-26 23:57:52,318 -[mav_srv] - INFO - -------GeoTag------------
2023-03-26 23:57:52,318 -[mav_srv] - INFO - {'time': 237872585, 'lat': 0.0, 'lon': 0.0, 'alt': 0.0, 'yaw': -36.916351318359375, 'pitch': -1.6393123865127563, 'roll': 1.3648598194122314, 'speed': 0.0}
2023-03-26 23:57:53,320 -[mav_srv] - INFO - -------GeoTag------------
2023-03-26 23:57:53,320 -[mav_srv] - INFO - {'time': 238871577, 'lat': 0.0, 'lon': 0.0, 'alt': 0.0, 'yaw': -36.898048400878906, 'pitch': -1.6335062980651855, 'roll': 1.3684053421020508, 'speed': 0.0}
2023-03-26 23:57:54,324 -[mav_srv] - INFO - -------GeoTag------------
2023-03-26 23:57:54,325 -[mav_srv] - INFO - {'time': 239870715, 'lat': 0.0, 'lon': 0.0, 'alt': 0.0, 'yaw': -36.9221076965332, 'pitch': -1.6336488723754883, 'roll': 1.3654944896697998, 'speed': 0.0}
2023-03-26 23:57:55,335 -[mav_srv] - INFO - -------GeoTag------------
2023-03-26 23:57:55,336 -[mav_srv] - INFO - {'time': 240871589, 'lat': 0.0, 'lon': 0.0, 'alt': 0.0, 'yaw': -36.9156494140625, 'pitch': -1.6296035051345825, 'roll': 1.3826887607574463, 'speed': 0.0}
2023-03-26 23:57:56,338 -[mav_srv] - INFO - -------GeoTag------------
2023-03-26 23:57:56,338 -[mav_srv] - INFO - {'time': 241871622, 'lat': 0.0, 'lon': 0.0, 'alt': 0.0, 'yaw': -36.92121887207031, 'pitch': -1.6322747468948364, 'roll': 1.3875842094421387, 'speed': 0.0}
2023-03-26 23:57:57,340 -[mav_srv] - INFO - -------GeoTag------------
2023-03-26 23:57:57,341 -[mav_srv] - INFO - {'time': 242872578, 'lat': 0.0, 'lon': 0.0, 'alt': 0.0, 'yaw': -36.9512825012207, 'pitch': -1.6365857124328613, 'roll': 1.3768069744110107, 'speed': 0.0}
2023-03-26 23:57:58,344 -[mav_srv] - INFO - -------GeoTag------------
2023-03-26 23:57:58,344 -[mav_srv] - INFO - {'time': 243869578, 'lat': 0.0, 'lon': 0.0, 'alt': 0.0, 'yaw': -36.95219039916992, 'pitch': -1.6358281373977661, 'roll': 1.3805862665176392, 'speed': 0.0}
2023-03-26 23:57:59,346 -[mav_srv] - INFO - -------GeoTag------------
2023-03-26 23:57:59,353 -[mav_srv] - INFO - {'time': 244870577, 'lat': 0.0, 'lon': 0.0, 'alt': 0.0, 'yaw': -36.96168899536133, 'pitch': -1.6340376138687134, 'roll': 1.3695515394210815, 'speed': 0.0}
2023-03-26 23:58:00,355 -[mav_srv] - INFO - -------GeoTag------------
2023-03-26 23:58:00,355 -[mav_srv] - INFO - {'time': 245869583, 'lat': 0.0, 'lon': 0.0, 'alt': 0.0, 'yaw': -36.97455596923828, 'pitch': -1.6388483047485352, 'roll': 1.3609272241592407, 'speed': 0.0}
2023-03-26 23:58:01,356 -[mav_srv] - INFO - -------GeoTag------------
2023-03-26 23:58:01,357 -[mav_srv] - INFO - {'time': 246871576, 'lat': 0.0, 'lon': 0.0, 'alt': 0.0, 'yaw': -36.96678924560547, 'pitch': -1.6318100690841675, 'roll': 1.3604166507720947, 'speed': 0.0}
2023-03-26 23:58:02,358 -[mav_srv] - INFO - -------GeoTag------------
2023-03-26 23:58:02,359 -[mav_srv] - INFO - {'time': 247872576, 'lat': 0.0, 'lon': 0.0, 'alt': 0.0, 'yaw': -36.993202209472656, 'pitch': -1.6344302892684937, 'roll': 1.36711847782135, 'speed': 0.0}
2023-03-26 23:58:03,360 -[mav_srv] - INFO - -------GeoTag------------
2023-03-26 23:58:03,361 -[mav_srv] - INFO - {'time': 248869578, 'lat': 0.0, 'lon': 0.0, 'alt': 0.0, 'yaw': -37.00320816040039, 'pitch': -1.6281343698501587, 'roll': 1.370626449584961, 'speed': 0.0}
2023-03-26 23:58:04,364 -[mav_srv] - INFO - -------GeoTag------------
2023-03-26 23:58:04,371 -[mav_srv] - INFO - {'time': 249871575, 'lat': 0.0, 'lon': 0.0, 'alt': 0.0, 'yaw': -36.998451232910156, 'pitch': -1.6298449039459229, 'roll': 1.368941068649292, 'speed': 0.0}
2023-03-26 23:58:05,374 -[mav_srv] - INFO - -------GeoTag------------
2023-03-26 23:58:05,374 -[mav_srv] - INFO - {'time': 250871576, 'lat': 0.0, 'lon': 0.0, 'alt': 0.0, 'yaw': -37.036773681640625, 'pitch': -1.6261208057403564, 'roll': 1.3907623291015625, 'speed': 0.0}
2023-03-26 23:58:06,375 -[mav_srv] - INFO - -------GeoTag------------
2023-03-26 23:58:06,376 -[mav_srv] - INFO - {'time': 251871576, 'lat': 0.0, 'lon': 0.0, 'alt': 0.0, 'yaw': -37.04999923706055, 'pitch': -1.6245605945587158, 'roll': 1.3946170806884766, 'speed': 0.0}
2023-03-26 23:58:07,378 -[mav_srv] - INFO - -------GeoTag------------
2023-03-26 23:58:07,379 -[mav_srv] - INFO - {'time': 252872577, 'lat': 0.0, 'lon': 0.0, 'alt': 0.0, 'yaw': -37.05653381347656, 'pitch': -1.6294732093811035, 'roll': 1.3898725509643555, 'speed': 0.0}
2023-03-26 23:58:08,380 -[mav_srv] - INFO - -------GeoTag------------
2023-03-26 23:58:08,380 -[mav_srv] - INFO - {'time': 253871575, 'lat': 0.0, 'lon': 0.0, 'alt': 0.0, 'yaw': -37.0964241027832, 'pitch': -1.6271417140960693, 'roll': 1.3732519149780273, 'speed': 0.0}
2023-03-26 23:58:09,383 -[mav_srv] - INFO - -------GeoTag------------
2023-03-26 23:58:09,384 -[mav_srv] - INFO - {'time': 254868576, 'lat': 0.0, 'lon': 0.0, 'alt': 0.0, 'yaw': -37.08280944824219, 'pitch': -1.6283490657806396, 'roll': 1.3702826499938965, 'speed': 0.0}
2023-03-26 23:58:10,390 -[mav_srv] - INFO - -------GeoTag------------
2023-03-26 23:58:10,391 -[mav_srv] - INFO - {'time': 255872577, 'lat': 0.0, 'lon': 0.0, 'alt': 0.0, 'yaw': -37.1005973815918, 'pitch': -1.6284587383270264, 'roll': 1.375244140625, 'speed': 0.0}
2023-03-26 23:58:11,392 -[mav_srv] - INFO - -------GeoTag------------
2023-03-26 23:58:11,392 -[mav_srv] - INFO - {'time': 256872859, 'lat': 0.0, 'lon': 0.0, 'alt': 0.0, 'yaw': -37.0996208190918, 'pitch': -1.6268213987350464, 'roll': 1.3816851377487183, 'speed': 0.0}
2023-03-26 23:58:12,394 -[mav_srv] - INFO - -------GeoTag------------
2023-03-26 23:58:12,394 -[mav_srv] - INFO - {'time': 257871622, 'lat': 0.0, 'lon': 0.0, 'alt': 0.0, 'yaw': -37.09854507446289, 'pitch': -1.6323236227035522, 'roll': 1.3774691820144653, 'speed': 0.0}
2023-03-26 23:58:13,396 -[mav_srv] - INFO - -------GeoTag------------
2023-03-26 23:58:13,396 -[mav_srv] - INFO - {'time': 258870576, 'lat': 0.0, 'lon': 0.0, 'alt': 0.0, 'yaw': -37.11934280395508, 'pitch': -1.6332285404205322, 'roll': 1.3783775568008423, 'speed': 0.0}
2023-03-26 23:58:14,398 -[mav_srv] - INFO - -------GeoTag------------
2023-03-26 23:58:14,398 -[mav_srv] - INFO - {'time': 259871577, 'lat': 0.0, 'lon': 0.0, 'alt': 0.0, 'yaw': -37.13224792480469, 'pitch': -1.6375623941421509, 'roll': 1.378552794456482, 'speed': 0.0}
2023-03-26 23:58:15,401 -[mav_srv] - INFO - -------GeoTag------------
2023-03-26 23:58:15,401 -[mav_srv] - INFO - {'time': 260873579, 'lat': 0.0, 'lon': 0.0, 'alt': 0.0, 'yaw': -37.151424407958984, 'pitch': -1.6301087141036987, 'roll': 1.3723984956741333, 'speed': 0.0}
2023-03-26 23:58:16,403 -[mav_srv] - INFO - -------GeoTag------------
2023-03-26 23:58:16,403 -[mav_srv] - INFO - {'time': 261873589, 'lat': 0.0, 'lon': 0.0, 'alt': 0.0, 'yaw': -37.19145965576172, 'pitch': -1.635820984840393, 'roll': 1.3832594156265259, 'speed': 0.0}
2023-03-26 23:58:17,405 -[mav_srv] - INFO - -------GeoTag------------
2023-03-26 23:58:17,406 -[mav_srv] - INFO - {'time': 262871576, 'lat': 0.0, 'lon': 0.0, 'alt': 0.0, 'yaw': -37.21902847290039, 'pitch': -1.6324464082717896, 'roll': 1.3845868110656738, 'speed': 0.0}
2023-03-26 23:58:18,408 -[mav_srv] - INFO - -------GeoTag------------
2023-03-26 23:58:18,409 -[mav_srv] - INFO - {'time': 264069578, 'lat': 0.0, 'lon': 0.0, 'alt': 0.0, 'yaw': -37.266502380371094, 'pitch': -1.6335986852645874, 'roll': 1.3857790231704712, 'speed': 0.0}
2023-03-26 23:58:19,411 -[mav_srv] - INFO - -------GeoTag------------
2023-03-26 23:58:19,411 -[mav_srv] - INFO - {'time': 265068583, 'lat': 0.0, 'lon': 0.0, 'alt': 0.0, 'yaw': -37.300148010253906, 'pitch': -1.6386868953704834, 'roll': 1.3841359615325928, 'speed': 0.0}
2023-03-26 23:58:20,418 -[mav_srv] - INFO - -------GeoTag------------
2023-03-26 23:58:20,418 -[mav_srv] - INFO - {'time': 266068746, 'lat': 0.0, 'lon': 0.0, 'alt': 0.0, 'yaw': -37.320369720458984, 'pitch': -1.634791374206543, 'roll': 1.3822773694992065, 'speed': 0.0}
2023-03-26 23:58:21,419 -[mav_srv] - INFO - -------GeoTag------------
2023-03-26 23:58:21,420 -[mav_srv] - INFO - {'time': 267068578, 'lat': 0.0, 'lon': 0.0, 'alt': 0.0, 'yaw': -37.377479553222656, 'pitch': -1.6313589811325073, 'roll': 1.384205937385559, 'speed': 0.0}
2023-03-26 23:58:22,422 -[mav_srv] - INFO - -------GeoTag------------
2023-03-26 23:58:22,423 -[mav_srv] - INFO - {'time': 268070576, 'lat': 0.0, 'lon': 0.0, 'alt': 0.0, 'yaw': -37.40571975708008, 'pitch': -1.628315806388855, 'roll': 1.3846924304962158, 'speed': 0.0}
2023-03-26 23:58:23,425 -[mav_srv] - INFO - -------GeoTag------------
2023-03-26 23:58:23,428 -[mav_srv] - INFO - {'time': 269070576, 'lat': 0.0, 'lon': 0.0, 'alt': 0.0, 'yaw': -37.43511199951172, 'pitch': -1.6269713640213013, 'roll': 1.3839552402496338, 'speed': 0.0}
2023-03-26 23:58:24,433 -[mav_srv] - INFO - -------GeoTag------------
2023-03-26 23:58:24,433 -[mav_srv] - INFO - {'time': 270070578, 'lat': 0.0, 'lon': 0.0, 'alt': 0.0, 'yaw': -37.48427963256836, 'pitch': -1.632994294166565, 'roll': 1.3820465803146362, 'speed': 0.0}
2023-03-26 23:58:25,441 -[mav_srv] - INFO - -------GeoTag------------
2023-03-26 23:58:25,441 -[mav_srv] - INFO - {'time': 271073576, 'lat': 0.0, 'lon': 0.0, 'alt': 0.0, 'yaw': -37.48643493652344, 'pitch': -1.6333590745925903, 'roll': 1.399980902671814, 'speed': 0.0}
2023-03-26 23:58:26,442 -[mav_srv] - INFO - -------GeoTag------------
2023-03-26 23:58:26,443 -[mav_srv] - INFO - {'time': 272071584, 'lat': 0.0, 'lon': 0.0, 'alt': 0.0, 'yaw': -37.498714447021484, 'pitch': -1.6320737600326538, 'roll': 1.4027338027954102, 'speed': 0.0}
2023-03-26 23:58:27,446 -[mav_srv] - INFO - -------GeoTag------------
2023-03-26 23:58:27,447 -[mav_srv] - INFO - {'time': 273070577, 'lat': 0.0, 'lon': 0.0, 'alt': 0.0, 'yaw': -37.48943328857422, 'pitch': -1.6342405080795288, 'roll': 1.4029864072799683, 'speed': 0.0}
2023-03-26 23:58:28,448 -[mav_srv] - INFO - -------GeoTag------------
2023-03-26 23:58:28,449 -[mav_srv] - INFO - {'time': 274070710, 'lat': 0.0, 'lon': 0.0, 'alt': 0.0, 'yaw': -37.47370910644531, 'pitch': -1.6405410766601562, 'roll': 1.4008338451385498, 'speed': 0.0}
2023-03-26 23:58:29,451 -[mav_srv] - INFO - -------GeoTag------------
2023-03-26 23:58:29,452 -[mav_srv] - INFO - {'time': 275070578, 'lat': 0.0, 'lon': 0.0, 'alt': 0.0, 'yaw': -37.473976135253906, 'pitch': -1.6364928483963013, 'roll': 1.4022547006607056, 'speed': 0.0}
2023-03-26 23:58:30,462 -[mav_srv] - INFO - -------GeoTag------------
2023-03-26 23:58:30,462 -[mav_srv] - INFO - {'time': 276070576, 'lat': 0.0, 'lon': 0.0, 'alt': 0.0, 'yaw': -37.4607048034668, 'pitch': -1.6386293172836304, 'roll': 1.3965179920196533, 'speed': 0.0}
2023-03-26 23:58:31,464 -[mav_srv] - INFO - -------GeoTag------------
2023-03-26 23:58:31,464 -[mav_srv] - INFO - {'time': 277070714, 'lat': 0.0, 'lon': 0.0, 'alt': 0.0, 'yaw': -37.43850326538086, 'pitch': -1.6379560232162476, 'roll': 1.4005132913589478, 'speed': 0.0}
2023-03-26 23:58:32,466 -[mav_srv] - INFO - -------GeoTag------------
2023-03-26 23:58:32,466 -[mav_srv] - INFO - {'time': 278071579, 'lat': 0.0, 'lon': 0.0, 'alt': 0.0, 'yaw': -37.41791915893555, 'pitch': -1.6328428983688354, 'roll': 1.3977458477020264, 'speed': 0.0}
2023-03-26 23:58:33,467 -[mav_srv] - INFO - -------GeoTag------------
2023-03-26 23:58:33,468 -[mav_srv] - INFO - {'time': 279068576, 'lat': 0.0, 'lon': 0.0, 'alt': 0.0, 'yaw': -37.38542175292969, 'pitch': -1.6399270296096802, 'roll': 1.393751621246338, 'speed': 0.0}
2023-03-26 23:58:34,470 -[mav_srv] - INFO - -------GeoTag------------
2023-03-26 23:58:34,470 -[mav_srv] - INFO - {'time': 280069578, 'lat': 0.0, 'lon': 0.0, 'alt': 0.0, 'yaw': -37.35934829711914, 'pitch': -1.6352654695510864, 'roll': 1.3969882726669312, 'speed': 0.0}
2023-03-26 23:58:35,477 -[mav_srv] - INFO - -------GeoTag------------
2023-03-26 23:58:35,478 -[mav_srv] - INFO - {'time': 281070577, 'lat': 0.0, 'lon': 0.0, 'alt': 0.0, 'yaw': -37.34138488769531, 'pitch': -1.633409857749939, 'roll': 1.4005964994430542, 'speed': 0.0}
2023-03-26 23:58:36,481 -[mav_srv] - INFO - -------GeoTag------------
2023-03-26 23:58:36,482 -[mav_srv] - INFO - {'time': 282070582, 'lat': 0.0, 'lon': 0.0, 'alt': 0.0, 'yaw': -37.320899963378906, 'pitch': -1.6283622980117798, 'roll': 1.403131127357483, 'speed': 0.0}
2023-03-26 23:58:37,482 -[mav_srv] - INFO - -------GeoTag------------
2023-03-26 23:58:37,483 -[mav_srv] - INFO - {'time': 283069580, 'lat': 0.0, 'lon': 0.0, 'alt': 0.0, 'yaw': -37.324302673339844, 'pitch': -1.6267602443695068, 'roll': 1.4009900093078613, 'speed': 0.0}
2023-03-26 23:58:38,484 -[mav_srv] - INFO - -------GeoTag------------
2023-03-26 23:58:38,485 -[mav_srv] - INFO - {'time': 284070576, 'lat': 0.0, 'lon': 0.0, 'alt': 0.0, 'yaw': -37.290985107421875, 'pitch': -1.6262086629867554, 'roll': 1.403744101524353, 'speed': 0.0}
2023-03-26 23:58:39,487 -[mav_srv] - INFO - -------GeoTag------------
2023-03-26 23:58:39,487 -[mav_srv] - INFO - {'time': 285069633, 'lat': 0.0, 'lon': 0.0, 'alt': 0.0, 'yaw': -37.273292541503906, 'pitch': -1.6213372945785522, 'roll': 1.4126430749893188, 'speed': 0.0}
2023-03-26 23:58:40,495 -[mav_srv] - INFO - -------GeoTag------------
2023-03-26 23:58:40,496 -[mav_srv] - INFO - {'time': 286071592, 'lat': 0.0, 'lon': 0.0, 'alt': 0.0, 'yaw': -37.28227996826172, 'pitch': -1.632124900817871, 'roll': 1.4008334875106812, 'speed': 0.0}
2023-03-26 23:58:41,497 -[mav_srv] - INFO - -------GeoTag------------
2023-03-26 23:58:41,498 -[mav_srv] - INFO - {'time': 287070576, 'lat': 0.0, 'lon': 0.0, 'alt': 0.0, 'yaw': -37.257381439208984, 'pitch': -1.6301733255386353, 'roll': 1.4022585153579712, 'speed': 0.0}
2023-03-26 23:58:42,499 -[mav_srv] - INFO - -------GeoTag------------
2023-03-26 23:58:42,500 -[mav_srv] - INFO - {'time': 288069578, 'lat': 0.0, 'lon': 0.0, 'alt': 0.0, 'yaw': -37.265220642089844, 'pitch': -1.6241401433944702, 'roll': 1.405377984046936, 'speed': 0.0}
2023-03-26 23:58:43,501 -[mav_srv] - INFO - -------GeoTag------------
2023-03-26 23:58:43,503 -[mav_srv] - INFO - {'time': 289069600, 'lat': 0.0, 'lon': 0.0, 'alt': 0.0, 'yaw': -37.260414123535156, 'pitch': -1.629709243774414, 'roll': 1.4085886478424072, 'speed': 0.0}
2023-03-26 23:58:44,504 -[mav_srv] - INFO - -------GeoTag------------
2023-03-26 23:58:44,505 -[mav_srv] - INFO - {'time': 290070577, 'lat': 0.0, 'lon': 0.0, 'alt': 0.0, 'yaw': -37.2607421875, 'pitch': -1.6293834447860718, 'roll': 1.4095622301101685, 'speed': 0.0}
2023-03-26 23:58:45,513 -[mav_srv] - INFO - -------GeoTag------------
2023-03-26 23:58:45,514 -[mav_srv] - INFO - {'time': 291069577, 'lat': 0.0, 'lon': 0.0, 'alt': 0.0, 'yaw': -37.27212142944336, 'pitch': -1.63093101978302, 'roll': 1.4109967947006226, 'speed': 0.0}
2023-03-26 23:58:46,515 -[mav_srv] - INFO - -------GeoTag------------
2023-03-26 23:58:46,515 -[mav_srv] - INFO - {'time': 292069867, 'lat': 0.0, 'lon': 0.0, 'alt': 0.0, 'yaw': -37.28208541870117, 'pitch': -1.624035358428955, 'roll': 1.406636357307434, 'speed': 0.0}
2023-03-26 23:58:47,517 -[mav_srv] - INFO - -------GeoTag------------
2023-03-26 23:58:47,517 -[mav_srv] - INFO - {'time': 293070579, 'lat': 0.0, 'lon': 0.0, 'alt': 0.0, 'yaw': -37.28632354736328, 'pitch': -1.6236087083816528, 'roll': 1.4029302597045898, 'speed': 0.0}
2023-03-26 23:58:48,518 -[mav_srv] - INFO - -------GeoTag------------
2023-03-26 23:58:48,519 -[mav_srv] - INFO - {'time': 294069576, 'lat': 0.0, 'lon': 0.0, 'alt': 0.0, 'yaw': -37.307586669921875, 'pitch': -1.6215107440948486, 'roll': 1.3850871324539185, 'speed': 0.0}
2023-03-26 23:58:49,520 -[mav_srv] - INFO - -------GeoTag------------
2023-03-26 23:58:49,521 -[mav_srv] - INFO - {'time': 295069577, 'lat': 0.0, 'lon': 0.0, 'alt': 0.0, 'yaw': -37.29665756225586, 'pitch': -1.6174415349960327, 'roll': 1.3848646879196167, 'speed': 0.0}
2023-03-26 23:58:50,523 -[mav_srv] - INFO - -------GeoTag------------
2023-03-26 23:58:50,523 -[mav_srv] - INFO - {'time': 296071577, 'lat': 0.0, 'lon': 0.0, 'alt': 0.0, 'yaw': -37.29472732543945, 'pitch': -1.6276764869689941, 'roll': 1.4084690809249878, 'speed': 0.0}
2023-03-26 23:58:51,525 -[mav_srv] - INFO - -------GeoTag------------
2023-03-26 23:58:51,525 -[mav_srv] - INFO - {'time': 297069577, 'lat': 0.0, 'lon': 0.0, 'alt': 0.0, 'yaw': -37.32225036621094, 'pitch': -1.6207836866378784, 'roll': 1.4064455032348633, 'speed': 0.0}
2023-03-26 23:58:52,527 -[mav_srv] - INFO - -------GeoTag------------
2023-03-26 23:58:52,527 -[mav_srv] - INFO - {'time': 298069577, 'lat': 0.0, 'lon': 0.0, 'alt': 0.0, 'yaw': -37.31496047973633, 'pitch': -1.6183151006698608, 'roll': 1.417710542678833, 'speed': 0.0}
2023-03-26 23:58:53,535 -[mav_srv] - INFO - -------GeoTag------------
2023-03-26 23:58:53,537 -[mav_srv] - INFO - {'time': 299069663, 'lat': 0.0, 'lon': 0.0, 'alt': 0.0, 'yaw': -37.33377456665039, 'pitch': -1.6184163093566895, 'roll': 1.4122068881988525, 'speed': 0.0}
2023-03-26 23:58:54,541 -[mav_srv] - INFO - -------GeoTag------------
2023-03-26 23:58:54,546 -[mav_srv] - INFO - {'time': 300069577, 'lat': 0.0, 'lon': 0.0, 'alt': 0.0, 'yaw': -37.31866455078125, 'pitch': -1.621632695198059, 'roll': 1.4037805795669556, 'speed': 0.0}
2023-03-26 23:58:55,548 -[mav_srv] - INFO - -------GeoTag------------
2023-03-26 23:58:55,552 -[mav_srv] - INFO - {'time': 301069822, 'lat': 0.0, 'lon': 0.0, 'alt': 0.0, 'yaw': -37.300437927246094, 'pitch': -1.618896484375, 'roll': 1.4069410562515259, 'speed': 0.0}
2023-03-26 23:58:56,555 -[mav_srv] - INFO - -------GeoTag------------
2023-03-26 23:58:56,556 -[mav_srv] - INFO - {'time': 302070576, 'lat': 0.0, 'lon': 0.0, 'alt': 0.0, 'yaw': -37.31779479980469, 'pitch': -1.6192148923873901, 'roll': 1.4012421369552612, 'speed': 0.0}
2023-03-26 23:58:57,557 -[mav_srv] - INFO - -------GeoTag------------
2023-03-26 23:58:57,557 -[mav_srv] - INFO - {'time': 303069633, 'lat': 0.0, 'lon': 0.0, 'alt': 0.0, 'yaw': -37.29512405395508, 'pitch': -1.6319726705551147, 'roll': 1.404862880706787, 'speed': 0.0}
2023-03-26 23:58:58,559 -[mav_srv] - INFO - -------GeoTag------------
2023-03-26 23:58:58,560 -[mav_srv] - INFO - {'time': 304068644, 'lat': 0.0, 'lon': 0.0, 'alt': 0.0, 'yaw': -37.29975509643555, 'pitch': -1.6015855073928833, 'roll': 1.408695101737976, 'speed': 0.0}
2023-03-26 23:58:59,562 -[mav_srv] - INFO - -------GeoTag------------
2023-03-26 23:58:59,562 -[mav_srv] - INFO - {'time': 305070736, 'lat': 0.0, 'lon': 0.0, 'alt': 0.0, 'yaw': -37.278785705566406, 'pitch': -1.6167304515838623, 'roll': 1.4083284139633179, 'speed': 0.0}
2023-03-26 23:59:00,565 -[mav_srv] - INFO - -------GeoTag------------
2023-03-26 23:59:00,566 -[mav_srv] - INFO - {'time': 306069578, 'lat': 0.0, 'lon': 0.0, 'alt': 0.0, 'yaw': -37.26810073852539, 'pitch': -1.616482138633728, 'roll': 1.4038324356079102, 'speed': 0.0}
2023-03-26 23:59:01,570 -[mav_srv] - INFO - -------GeoTag------------
2023-03-26 23:59:01,571 -[mav_srv] - INFO - {'time': 307067578, 'lat': 0.0, 'lon': 0.0, 'alt': 0.0, 'yaw': -37.28826904296875, 'pitch': -1.6249094009399414, 'roll': 1.4041427373886108, 'speed': 0.0}
2023-03-26 23:59:02,577 -[mav_srv] - INFO - -------GeoTag------------
2023-03-26 23:59:02,577 -[mav_srv] - INFO - {'time': 308068577, 'lat': 0.0, 'lon': 0.0, 'alt': 0.0, 'yaw': -37.30014419555664, 'pitch': -1.6199601888656616, 'roll': 1.4086596965789795, 'speed': 0.0}
2023-03-26 23:59:03,579 -[mav_srv] - INFO - -------GeoTag------------
2023-03-26 23:59:03,580 -[mav_srv] - INFO - {'time': 309068577, 'lat': 0.0, 'lon': 0.0, 'alt': 0.0, 'yaw': -37.307220458984375, 'pitch': -1.625958800315857, 'roll': 1.4119634628295898, 'speed': 0.0}
2023-03-26 23:59:04,581 -[mav_srv] - INFO - -------GeoTag------------
2023-03-26 23:59:04,582 -[mav_srv] - INFO - {'time': 310069577, 'lat': 0.0, 'lon': 0.0, 'alt': 0.0, 'yaw': -37.33418273925781, 'pitch': -1.6244430541992188, 'roll': 1.403757929801941, 'speed': 0.0}
2023-03-26 23:59:05,583 -[mav_srv] - INFO - -------GeoTag------------
2023-03-26 23:59:05,583 -[mav_srv] - INFO - {'time': 311068578, 'lat': 0.0, 'lon': 0.0, 'alt': 0.0, 'yaw': -37.334102630615234, 'pitch': -1.6182188987731934, 'roll': 1.39960515499115, 'speed': 0.0}
2023-03-26 23:59:06,584 -[mav_srv] - INFO - -------GeoTag------------
2023-03-26 23:59:06,585 -[mav_srv] - INFO - {'time': 312068736, 'lat': 0.0, 'lon': 0.0, 'alt': 0.0, 'yaw': -37.366458892822266, 'pitch': -1.6218676567077637, 'roll': 1.401847004890442, 'speed': 0.0}
2023-03-26 23:59:07,587 -[mav_srv] - INFO - -------GeoTag------------
2023-03-26 23:59:07,587 -[mav_srv] - INFO - {'time': 313069577, 'lat': 0.0, 'lon': 0.0, 'alt': 0.0, 'yaw': -37.4085693359375, 'pitch': -1.6241120100021362, 'roll': 1.4016170501708984, 'speed': 0.0}
2023-03-26 23:59:08,589 -[mav_srv] - INFO - -------GeoTag------------
2023-03-26 23:59:08,589 -[mav_srv] - INFO - {'time': 314069739, 'lat': 0.0, 'lon': 0.0, 'alt': 0.0, 'yaw': -37.40283203125, 'pitch': -1.6215566396713257, 'roll': 1.3952828645706177, 'speed': 0.0}
2023-03-26 23:59:09,591 -[mav_srv] - INFO - -------GeoTag------------
2023-03-26 23:59:09,591 -[mav_srv] - INFO - {'time': 315069745, 'lat': 0.0, 'lon': 0.0, 'alt': 0.0, 'yaw': -37.4572868347168, 'pitch': -1.6196690797805786, 'roll': 1.3953721523284912, 'speed': 0.0}
2023-03-26 23:59:10,595 -[mav_srv] - INFO - -------GeoTag------------
2023-03-26 23:59:10,598 -[mav_srv] - INFO - {'time': 316068577, 'lat': 0.0, 'lon': 0.0, 'alt': 0.0, 'yaw': -37.460506439208984, 'pitch': -1.6215671300888062, 'roll': 1.3909146785736084, 'speed': 0.0}
2023-03-26 23:59:11,600 -[mav_srv] - INFO - -------GeoTag------------
2023-03-26 23:59:11,601 -[mav_srv] - INFO - {'time': 317069576, 'lat': 0.0, 'lon': 0.0, 'alt': 0.0, 'yaw': -37.47589874267578, 'pitch': -1.623322606086731, 'roll': 1.3899813890457153, 'speed': 0.0}
2023-03-26 23:59:12,604 -[mav_srv] - INFO - -------GeoTag------------
2023-03-26 23:59:12,611 -[mav_srv] - INFO - {'time': 318067585, 'lat': 0.0, 'lon': 0.0, 'alt': 0.0, 'yaw': -37.51642608642578, 'pitch': -1.6184395551681519, 'roll': 1.3920596837997437, 'speed': 0.0}
2023-03-26 23:59:13,614 -[mav_srv] - INFO - -------GeoTag------------
2023-03-26 23:59:13,615 -[mav_srv] - INFO - {'time': 319269576, 'lat': 0.0, 'lon': 0.0, 'alt': 0.0, 'yaw': -37.520904541015625, 'pitch': -1.6238073110580444, 'roll': 1.388429880142212, 'speed': 0.0}
2023-03-26 23:59:14,618 -[mav_srv] - INFO - -------GeoTag------------
2023-03-26 23:59:14,619 -[mav_srv] - INFO - {'time': 320268577, 'lat': 0.0, 'lon': 0.0, 'alt': 0.0, 'yaw': -37.54981994628906, 'pitch': -1.6197396516799927, 'roll': 1.3893972635269165, 'speed': 0.0}
2023-03-26 23:59:15,621 -[mav_srv] - INFO - -------GeoTag------------
2023-03-26 23:59:15,621 -[mav_srv] - INFO - {'time': 321269576, 'lat': 0.0, 'lon': 0.0, 'alt': 0.0, 'yaw': -37.58592987060547, 'pitch': -1.627589225769043, 'roll': 1.3844600915908813, 'speed': 0.0}
2023-03-26 23:59:16,624 -[mav_srv] - INFO - -------GeoTag------------
2023-03-26 23:59:16,624 -[mav_srv] - INFO - {'time': 322268583, 'lat': 0.0, 'lon': 0.0, 'alt': 0.0, 'yaw': -37.58607482910156, 'pitch': -1.6284675598144531, 'roll': 1.3821322917938232, 'speed': 0.0}
2023-03-26 23:59:17,627 -[mav_srv] - INFO - -------GeoTag------------
2023-03-26 23:59:17,627 -[mav_srv] - INFO - {'time': 323268577, 'lat': 0.0, 'lon': 0.0, 'alt': 0.0, 'yaw': -37.59978103637695, 'pitch': -1.6233086585998535, 'roll': 1.3914231061935425, 'speed': 0.0}
2023-03-26 23:59:18,629 -[mav_srv] - INFO - -------GeoTag------------
2023-03-26 23:59:18,630 -[mav_srv] - INFO - {'time': 324270576, 'lat': 0.0, 'lon': 0.0, 'alt': 0.0, 'yaw': -37.5793571472168, 'pitch': -1.6268367767333984, 'roll': 1.376664161682129, 'speed': 0.0}
2023-03-26 23:59:19,631 -[mav_srv] - INFO - -------GeoTag------------
2023-03-26 23:59:19,632 -[mav_srv] - INFO - {'time': 325270576, 'lat': 0.0, 'lon': 0.0, 'alt': 0.0, 'yaw': -37.55095672607422, 'pitch': -1.6196303367614746, 'roll': 1.3795465230941772, 'speed': 0.0}
2023-03-26 23:59:20,634 -[mav_srv] - INFO - -------GeoTag------------
2023-03-26 23:59:20,634 -[mav_srv] - INFO - {'time': 326269577, 'lat': 0.0, 'lon': 0.0, 'alt': 0.0, 'yaw': -37.54740524291992, 'pitch': -1.612604022026062, 'roll': 1.3993641138076782, 'speed': 0.0}
2023-03-26 23:59:21,635 -[mav_srv] - INFO - -------GeoTag------------
2023-03-26 23:59:21,636 -[mav_srv] - INFO - {'time': 327269583, 'lat': 0.0, 'lon': 0.0, 'alt': 0.0, 'yaw': -37.512760162353516, 'pitch': -1.6125595569610596, 'roll': 1.403181552886963, 'speed': 0.0}
2023-03-26 23:59:22,638 -[mav_srv] - INFO - -------GeoTag------------
2023-03-26 23:59:22,638 -[mav_srv] - INFO - {'time': 328269577, 'lat': 0.0, 'lon': 0.0, 'alt': 0.0, 'yaw': -37.50179672241211, 'pitch': -1.616125226020813, 'roll': 1.3951596021652222, 'speed': 0.0}
2023-03-26 23:59:23,640 -[mav_srv] - INFO - -------GeoTag------------
2023-03-26 23:59:23,641 -[mav_srv] - INFO - {'time': 329266650, 'lat': 0.0, 'lon': 0.0, 'alt': 0.0, 'yaw': -37.496315002441406, 'pitch': -1.6188085079193115, 'roll': 1.3778799772262573, 'speed': 0.0}
2023-03-26 23:59:24,644 -[mav_srv] - INFO - -------GeoTag------------
2023-03-26 23:59:24,644 -[mav_srv] - INFO - {'time': 330268577, 'lat': 0.0, 'lon': 0.0, 'alt': 0.0, 'yaw': -37.4608268737793, 'pitch': -1.620165467262268, 'roll': 1.377942442893982, 'speed': 0.0}
2023-03-26 23:59:25,645 -[mav_srv] - INFO - -------GeoTag------------
2023-03-26 23:59:25,646 -[mav_srv] - INFO - {'time': 331268576, 'lat': 0.0, 'lon': 0.0, 'alt': 0.0, 'yaw': -37.45259475708008, 'pitch': -1.6248373985290527, 'roll': 1.3838518857955933, 'speed': 0.0}
2023-03-26 23:59:26,647 -[mav_srv] - INFO - -------GeoTag------------
2023-03-26 23:59:26,648 -[mav_srv] - INFO - {'time': 332268575, 'lat': 0.0, 'lon': 0.0, 'alt': 0.0, 'yaw': -37.42852783203125, 'pitch': -1.6197627782821655, 'roll': 1.3860843181610107, 'speed': 0.0}
2023-03-26 23:59:27,651 -[mav_srv] - INFO - -------GeoTag------------
2023-03-26 23:59:27,651 -[mav_srv] - INFO - {'time': 333268576, 'lat': 0.0, 'lon': 0.0, 'alt': 0.0, 'yaw': -37.410255432128906, 'pitch': -1.6214138269424438, 'roll': 1.3893356323242188, 'speed': 0.0}
2023-03-26 23:59:28,652 -[mav_srv] - INFO - -------GeoTag------------
2023-03-26 23:59:28,652 -[mav_srv] - INFO - {'time': 334268576, 'lat': 0.0, 'lon': 0.0, 'alt': 0.0, 'yaw': -37.41282272338867, 'pitch': -1.6239672899246216, 'roll': 1.3901795148849487, 'speed': 0.0}
2023-03-26 23:59:29,654 -[mav_srv] - INFO - -------GeoTag------------
2023-03-26 23:59:29,654 -[mav_srv] - INFO - {'time': 335267594, 'lat': 0.0, 'lon': 0.0, 'alt': 0.0, 'yaw': -37.39111328125, 'pitch': -1.6246811151504517, 'roll': 1.3892663717269897, 'speed': 0.0}
2023-03-26 23:59:30,655 -[mav_srv] - INFO - -------GeoTag------------
2023-03-26 23:59:30,655 -[mav_srv] - INFO - {'time': 336268597, 'lat': 0.0, 'lon': 0.0, 'alt': 0.0, 'yaw': -37.38581848144531, 'pitch': -1.6181743144989014, 'roll': 1.3863605260849, 'speed': 0.0}
2023-03-26 23:59:31,657 -[mav_srv] - INFO - -------GeoTag------------
2023-03-26 23:59:31,658 -[mav_srv] - INFO - {'time': 337267578, 'lat': 0.0, 'lon': 0.0, 'alt': 0.0, 'yaw': -37.3757438659668, 'pitch': -1.6170365810394287, 'roll': 1.361595630645752, 'speed': 0.0}
2023-03-26 23:59:32,660 -[mav_srv] - INFO - -------GeoTag------------
2023-03-26 23:59:32,661 -[mav_srv] - INFO - {'time': 338267588, 'lat': 0.0, 'lon': 0.0, 'alt': 0.0, 'yaw': -37.347591400146484, 'pitch': -1.6172674894332886, 'roll': 1.364504098892212, 'speed': 0.0}
2023-03-26 23:59:33,662 -[mav_srv] - INFO - -------GeoTag------------
2023-03-26 23:59:33,663 -[mav_srv] - INFO - {'time': 339268576, 'lat': 0.0, 'lon': 0.0, 'alt': 0.0, 'yaw': -37.349029541015625, 'pitch': -1.6199105978012085, 'roll': 1.369188904762268, 'speed': 0.0}
2023-03-26 23:59:34,664 -[mav_srv] - INFO - -------GeoTag------------
2023-03-26 23:59:34,664 -[mav_srv] - INFO - {'time': 340268576, 'lat': 0.0, 'lon': 0.0, 'alt': 0.0, 'yaw': -37.326656341552734, 'pitch': -1.619564414024353, 'roll': 1.3854528665542603, 'speed': 0.0}
2023-03-26 23:59:35,677 -[mav_srv] - INFO - -------GeoTag------------
2023-03-26 23:59:35,677 -[mav_srv] - INFO - {'time': 341269790, 'lat': 0.0, 'lon': 0.0, 'alt': 0.0, 'yaw': -37.3001708984375, 'pitch': -1.6133211851119995, 'roll': 1.359689712524414, 'speed': 0.0}
2023-03-26 23:59:36,682 -[mav_srv] - INFO - -------GeoTag------------
2023-03-26 23:59:36,683 -[mav_srv] - INFO - {'time': 342267587, 'lat': 0.0, 'lon': 0.0, 'alt': 0.0, 'yaw': -37.304603576660156, 'pitch': -1.617056131362915, 'roll': 1.356407880783081, 'speed': 0.0}
2023-03-26 23:59:37,685 -[mav_srv] - INFO - -------GeoTag------------
2023-03-26 23:59:37,685 -[mav_srv] - INFO - {'time': 343267576, 'lat': 0.0, 'lon': 0.0, 'alt': 0.0, 'yaw': -37.27559280395508, 'pitch': -1.6256370544433594, 'roll': 1.3536133766174316, 'speed': 0.0}
2023-03-26 23:59:38,688 -[mav_srv] - INFO - -------GeoTag------------
2023-03-26 23:59:38,688 -[mav_srv] - INFO - {'time': 344268576, 'lat': 0.0, 'lon': 0.0, 'alt': 0.0, 'yaw': -37.27035140991211, 'pitch': -1.6222665309906006, 'roll': 1.3471084833145142, 'speed': 0.0}
2023-03-26 23:59:39,690 -[mav_srv] - INFO - -------GeoTag------------
2023-03-26 23:59:39,692 -[mav_srv] - INFO - {'time': 345267577, 'lat': 0.0, 'lon': 0.0, 'alt': 0.0, 'yaw': -37.263519287109375, 'pitch': -1.6252871751785278, 'roll': 1.3439011573791504, 'speed': 0.0}
2023-03-26 23:59:40,698 -[mav_srv] - INFO - -------GeoTag------------
2023-03-26 23:59:40,699 -[mav_srv] - INFO - {'time': 346267577, 'lat': 0.0, 'lon': 0.0, 'alt': 0.0, 'yaw': -37.24260711669922, 'pitch': -1.622371792793274, 'roll': 1.3492704629898071, 'speed': 0.0}
2023-03-26 23:59:41,701 -[mav_srv] - INFO - -------GeoTag------------
2023-03-26 23:59:41,702 -[mav_srv] - INFO - {'time': 347266689, 'lat': 0.0, 'lon': 0.0, 'alt': 0.0, 'yaw': -37.23161697387695, 'pitch': -1.6280180215835571, 'roll': 1.3599658012390137, 'speed': 0.0}
2023-03-26 23:59:42,704 -[mav_srv] - INFO - -------GeoTag------------
2023-03-26 23:59:42,705 -[mav_srv] - INFO - {'time': 348267584, 'lat': 0.0, 'lon': 0.0, 'alt': 0.0, 'yaw': -37.220027923583984, 'pitch': -1.6344952583312988, 'roll': 1.3835945129394531, 'speed': 0.0}
2023-03-26 23:59:43,707 -[mav_srv] - INFO - -------GeoTag------------
2023-03-26 23:59:43,707 -[mav_srv] - INFO - {'time': 349267577, 'lat': 0.0, 'lon': 0.0, 'alt': 0.0, 'yaw': -37.20534133911133, 'pitch': -1.6303209066390991, 'roll': 1.3944132328033447, 'speed': 0.0}
2023-03-26 23:59:44,709 -[mav_srv] - INFO - -------GeoTag------------
2023-03-26 23:59:44,717 -[mav_srv] - INFO - {'time': 350267610, 'lat': 0.0, 'lon': 0.0, 'alt': 0.0, 'yaw': -37.19508743286133, 'pitch': -1.6270445585250854, 'roll': 1.3850369453430176, 'speed': 0.0}
2023-03-26 23:59:45,718 -[mav_srv] - INFO - -------GeoTag------------
2023-03-26 23:59:45,718 -[mav_srv] - INFO - {'time': 351267578, 'lat': 0.0, 'lon': 0.0, 'alt': 0.0, 'yaw': -37.17713928222656, 'pitch': -1.6231778860092163, 'roll': 1.3783495426177979, 'speed': 0.0}
2023-03-26 23:59:46,720 -[mav_srv] - INFO - -------GeoTag------------
2023-03-26 23:59:46,720 -[mav_srv] - INFO - {'time': 352266862, 'lat': 0.0, 'lon': 0.0, 'alt': 0.0, 'yaw': -37.143898010253906, 'pitch': -1.5999321937561035, 'roll': 1.3507080078125, 'speed': 0.0}
2023-03-26 23:59:47,723 -[mav_srv] - INFO - -------GeoTag------------
2023-03-26 23:59:47,724 -[mav_srv] - INFO - {'time': 353266627, 'lat': 0.0, 'lon': 0.0, 'alt': 0.0, 'yaw': -37.147377014160156, 'pitch': -1.6208598613739014, 'roll': 1.3633053302764893, 'speed': 0.0}
2023-03-26 23:59:48,729 -[mav_srv] - INFO - -------GeoTag------------
2023-03-26 23:59:48,730 -[mav_srv] - INFO - {'time': 354268575, 'lat': 0.0, 'lon': 0.0, 'alt': 0.0, 'yaw': -37.11326599121094, 'pitch': -1.603030800819397, 'roll': 1.335540533065796, 'speed': 0.0}
2023-03-26 23:59:49,744 -[mav_srv] - INFO - -------GeoTag------------
2023-03-26 23:59:49,744 -[mav_srv] - INFO - {'time': 355267577, 'lat': 0.0, 'lon': 0.0, 'alt': 0.0, 'yaw': -37.1198844909668, 'pitch': -1.6085424423217773, 'roll': 1.3475703001022339, 'speed': 0.0}
2023-03-26 23:59:50,752 -[mav_srv] - INFO - -------GeoTag------------
2023-03-26 23:59:50,752 -[mav_srv] - INFO - {'time': 356267575, 'lat': 0.0, 'lon': 0.0, 'alt': 0.0, 'yaw': -37.089115142822266, 'pitch': -1.6135953664779663, 'roll': 1.3448375463485718, 'speed': 0.0}
2023-03-26 23:59:51,754 -[mav_srv] - INFO - -------GeoTag------------
2023-03-26 23:59:51,754 -[mav_srv] - INFO - {'time': 357267577, 'lat': 0.0, 'lon': 0.0, 'alt': 0.0, 'yaw': -37.06791305541992, 'pitch': -1.6100660562515259, 'roll': 1.3462779521942139, 'speed': 0.0}
2023-03-26 23:59:52,757 -[mav_srv] - INFO - -------GeoTag------------
2023-03-26 23:59:52,758 -[mav_srv] - INFO - {'time': 358268674, 'lat': 0.0, 'lon': 0.0, 'alt': 0.0, 'yaw': -37.06016540527344, 'pitch': -1.6160379648208618, 'roll': 1.3398230075836182, 'speed': 0.0}
2023-03-26 23:59:53,768 -[mav_srv] - INFO - -------GeoTag------------
2023-03-26 23:59:53,768 -[mav_srv] - INFO - {'time': 359266796, 'lat': 0.0, 'lon': 0.0, 'alt': 0.0, 'yaw': -37.03384017944336, 'pitch': -1.6137428283691406, 'roll': 1.3480061292648315, 'speed': 0.0}
2023-03-26 23:59:54,770 -[mav_srv] - INFO - -------GeoTag------------
2023-03-26 23:59:54,770 -[mav_srv] - INFO - {'time': 360267615, 'lat': 0.0, 'lon': 0.0, 'alt': 0.0, 'yaw': -37.015541076660156, 'pitch': -1.6036027669906616, 'roll': 1.3509621620178223, 'speed': 0.0}
2023-03-26 23:59:55,771 -[mav_srv] - INFO - -------GeoTag------------
2023-03-26 23:59:55,772 -[mav_srv] - INFO - {'time': 361267950, 'lat': 0.0, 'lon': 0.0, 'alt': 0.0, 'yaw': -37.0083122253418, 'pitch': -1.6098382472991943, 'roll': 1.3411768674850464, 'speed': 0.0}
2023-03-26 23:59:56,775 -[mav_srv] - INFO - -------GeoTag------------
2023-03-26 23:59:56,775 -[mav_srv] - INFO - {'time': 362266622, 'lat': 0.0, 'lon': 0.0, 'alt': 0.0, 'yaw': -36.97604751586914, 'pitch': -1.6127359867095947, 'roll': 1.3446921110153198, 'speed': 0.0}
2023-03-26 23:59:57,778 -[mav_srv] - INFO - -------GeoTag------------
2023-03-26 23:59:57,780 -[mav_srv] - INFO - {'time': 363266611, 'lat': 0.0, 'lon': 0.0, 'alt': 0.0, 'yaw': -36.976531982421875, 'pitch': -1.5991603136062622, 'roll': 1.3461967706680298, 'speed': 0.0}
2023-03-26 23:59:58,788 -[mav_srv] - INFO - -------GeoTag------------
2023-03-26 23:59:58,788 -[mav_srv] - INFO - {'time': 364266611, 'lat': 0.0, 'lon': 0.0, 'alt': 0.0, 'yaw': -36.971527099609375, 'pitch': -1.6052554845809937, 'roll': 1.3455713987350464, 'speed': 0.0}
2023-03-26 23:59:59,793 -[mav_srv] - INFO - -------GeoTag------------
2023-03-26 23:59:59,794 -[mav_srv] - INFO - {'time': 365266640, 'lat': 0.0, 'lon': 0.0, 'alt': 0.0, 'yaw': -36.94950485229492, 'pitch': -1.6039884090423584, 'roll': 1.3432085514068604, 'speed': 0.0}
2023-03-27 00:00:00,798 -[mav_srv] - INFO - -------GeoTag------------
2023-03-27 00:00:00,798 -[mav_srv] - INFO - {'time': 366266657, 'lat': 0.0, 'lon': 0.0, 'alt': 0.0, 'yaw': -36.96245574951172, 'pitch': -1.6010193824768066, 'roll': 1.3473707437515259, 'speed': 0.0}
2023-03-27 00:00:01,800 -[mav_srv] - INFO - -------GeoTag------------
2023-03-27 00:00:01,800 -[mav_srv] - INFO - {'time': 367266705, 'lat': 0.0, 'lon': 0.0, 'alt': 0.0, 'yaw': -36.95509719848633, 'pitch': -1.5957999229431152, 'roll': 1.347151756286621, 'speed': 0.0}
2023-03-27 00:00:02,802 -[mav_srv] - INFO - -------GeoTag------------
2023-03-27 00:00:02,802 -[mav_srv] - INFO - {'time': 368267577, 'lat': 0.0, 'lon': 0.0, 'alt': 0.0, 'yaw': -36.94564437866211, 'pitch': -1.5954744815826416, 'roll': 1.3539303541183472, 'speed': 0.0}
2023-03-27 00:00:03,805 -[mav_srv] - INFO - -------GeoTag------------
2023-03-27 00:00:03,805 -[mav_srv] - INFO - {'time': 369267579, 'lat': 0.0, 'lon': 0.0, 'alt': 0.0, 'yaw': -36.94817352294922, 'pitch': -1.6014755964279175, 'roll': 1.3522781133651733, 'speed': 0.0}
2023-03-27 00:00:04,812 -[mav_srv] - INFO - -------GeoTag------------
2023-03-27 00:00:04,812 -[mav_srv] - INFO - {'time': 370266623, 'lat': 0.0, 'lon': 0.0, 'alt': 0.0, 'yaw': -36.923892974853516, 'pitch': -1.5897929668426514, 'roll': 1.3464391231536865, 'speed': 0.0}
2023-03-27 00:00:05,814 -[mav_srv] - INFO - -------GeoTag------------
2023-03-27 00:00:05,814 -[mav_srv] - INFO - {'time': 371466618, 'lat': 0.0, 'lon': 0.0, 'alt': 0.0, 'yaw': -36.916133880615234, 'pitch': -1.5859220027923584, 'roll': 1.348028540611267, 'speed': 0.0}
2023-03-27 00:00:06,816 -[mav_srv] - INFO - -------GeoTag------------
2023-03-27 00:00:06,816 -[mav_srv] - INFO - {'time': 372466611, 'lat': 0.0, 'lon': 0.0, 'alt': 0.0, 'yaw': -36.91918182373047, 'pitch': -1.5950514078140259, 'roll': 1.3524329662322998, 'speed': 0.0}
2023-03-27 00:00:07,818 -[mav_srv] - INFO - -------GeoTag------------
